,City,Country,Date,Humidity,Lat,Lng,Max Temp,Wind Speed,Cloudiness
0,Komsomolskiy,RU,1578277174,94,67.55,63.78,260.43,7.59,100
1,Qaanaaq,GL,1578277340,51,77.48,-69.36,241.34,1.32,74
2,Duku,ID,1578277555,55,-1.19,100.47,301.08,1.22,0
3,Kudahuvadhoo,MV,1578277555,78,2.67,72.89,301.2,5.11,100
4,Port Alfred,ZA,1578277555,93,-33.59,26.89,293.15,1.4,99
5,Saldanha,PT,1578277165,84,41.42,-6.55,274.47,0.25,0
6,Sao Filipe,CV,1578277555,67,14.9,-24.5,294.43,8.9,98
7,Puerto del Rosario,ES,1578277555,48,28.5,-13.86,292.15,6.2,1
8,Olinda,AU,1578277555,87,-37.84,145.39,288.71,2.6,90
9,Carnarvon,ZA,1578277556,82,-30.97,22.13,288.14,3.3,69
10,Bluff,AU,1578277556,38,-23.58,149.07,305.81,6.12,74
11,Marienburg,DE,1578277556,75,52.12,9.98,279.82,4.1,75
12,Hermanus,ZA,1578277556,94,-34.42,19.24,290.37,4.37,100
13,Hobart,AU,1578277479,55,-42.88,147.33,298.15,7.2,20
14,Mataura,NZ,1578277556,79,-46.19,168.86,283.15,11.62,100
15,Busselton,AU,1578277557,15,-33.64,115.35,305.37,5.11,23
16,New Norfolk,AU,1578277557,55,-42.78,147.06,298.71,7.2,20
17,Port Blair,IN,1578277557,83,11.67,92.75,300.15,4.1,40
18,Phon,TH,1578277557,52,15.81,102.61,299.15,3.03,0
19,Konevo,BG,1578277557,58,41.67,25.61,278.15,8.94,100
20,Rikitea,PF,1578277557,76,-23.12,-134.97,297.75,7.17,52
21,Prince Rupert,CA,1578277558,66,54.32,-130.32,276.15,3.6,20
22,Ushuaia,AR,1578277314,75,-54.81,-68.31,281.15,11.8,75
23,Hirara,JP,1578277436,60,24.8,125.28,297.15,6.2,75
24,Russell,US,1578277345,44,38.9,-98.86,276.15,2.1,1
25,Tyrma,RU,1578277558,88,50.04,132.17,254.45,0.67,16
26,Port Elizabeth,US,1578277306,55,39.31,-74.98,276.48,3.6,1
27,Airai,TL,1578277364,53,-8.93,125.41,300.65,2.22,100
28,Miraflores,PE,1578277558,62,-16.39,-71.52,287.15,2.1,40
29,Bilibino,RU,1578277428,68,68.06,166.44,248.25,0.88,0
30,Sangmelima,CM,1578277559,80,2.93,11.98,291.24,0.54,25
31,Sola,TZ,1578277419,91,-3.17,33.8,290.55,1.58,38
32,Souillac,FR,1578277374,93,45.6,-0.6,275.15,1.0,0
33,Cherskiy,RU,1578277326,63,68.75,161.3,249.92,1.89,1
34,Jamestown,AU,1578277337,55,-33.21,138.6,296.15,0.14,82
35,Tiksi,RU,1578277145,86,71.64,128.87,248.39,6.08,3
36,Kavaratti,IN,1578277181,67,10.57,72.64,299.98,3.22,0
37,Albany,US,1578277315,63,42.65,-73.75,271.15,1.5,40
38,Kavieng,PG,1578277321,69,-2.57,150.8,303.01,3.64,29
39,Rognan,NO,1578277561,86,67.1,15.4,278.15,8.7,75
40,Kaitangata,NZ,1578277347,67,-46.28,169.85,283.71,13.41,100
41,Punta Arenas,CL,1578277307,61,-53.16,-70.91,281.15,5.7,40
42,Hay River,CA,1578277561,75,60.82,-115.79,248.15,5.7,75
43,Matelandia,BR,1578277562,73,-25.24,-54.0,298.15,1.5,0
44,Georgetown,GY,1578277270,88,6.8,-58.16,295.15,2.1,0
45,Vao,EE,1578277327,95,59.1,26.19,272.5,6.4,100
46,Guerrero Negro,MX,1578277562,50,27.97,-114.04,290.4,3.2,83
47,Ngerengere,TZ,1578277562,88,-6.76,38.13,295.24,1.65,62
48,Kosa,JP,1578277562,58,32.67,130.82,285.15,0.5,75
49,Sechura,PE,1578277340,85,-5.56,-80.82,295.27,3.9,0
50,Constitucion,MX,1578277375,22,23.99,-104.67,286.15,2.6,20
51,Barrow,AR,1578277351,89,-38.31,-60.23,289.65,3.24,100
52,Butaritari,KI,1578277145,75,3.07,172.79,302.6,7.79,100
53,Poum,MK,1578277563,63,41.28,20.71,268.18,3.31,0
54,Atuona,PF,1578277146,78,-9.8,-139.03,299.76,4.79,63
55,Touros,BR,1578277563,83,-5.2,-35.46,299.15,2.6,40
56,Koson,UZ,1578277563,100,39.04,65.59,278.15,6.2,90
57,Oktyabrskoye,RU,1578277563,92,56.73,85.44,270.37,6.0,75
58,Qaqortoq,GL,1578277564,78,60.72,-46.03,265.15,15.26,75
59,Buchanan,LR,1578277388,88,5.88,-10.05,293.15,1.5,20
60,Bumba,CD,1578277564,66,2.18,22.47,295.35,0.98,100
61,Kulhudhuffushi,MV,1578277172,79,6.62,73.07,301.06,5.68,68
62,Naze,NG,1578277565,83,5.43,7.07,296.15,0.37,2
63,Miram Shah,PK,1578277565,97,33.01,70.07,274.54,1.53,100
64,Cape Town,ZA,1578277541,72,-33.93,18.42,290.37,3.6,40
65,Codrington,AU,1578277367,45,-28.95,153.24,305.15,4.6,40
66,Dhidhdhoo,MV,1578277565,77,6.88,73.1,301.06,5.21,31
67,Sheoganj,IN,1578277565,43,25.14,73.07,288.14,1.86,13
68,Viedma,AR,1578277414,93,-40.81,-62.99,287.48,1.35,95
69,Katsuura,JP,1578277148,54,33.93,134.5,284.82,2.6,40
70,Cidreira,BR,1578277148,84,-30.17,-50.22,296.87,10.35,0
71,Khatanga,RU,1578277156,98,71.98,102.47,253.79,2.54,99
72,Cuamba,MZ,1578277566,91,-14.8,36.54,293.58,0.54,100
73,Shatrovo,BG,1578277566,68,42.29,22.98,272.15,2.6,75
74,East London,ZA,1578277566,77,-33.02,27.91,295.27,2.41,44
75,Bara,NG,1578277566,39,10.41,10.6,288.6,2.62,71
76,Huoqiu,CN,1578277566,91,32.34,116.27,281.68,4.43,100
77,Puerto Ayora,EC,1578277567,82,-0.74,-90.35,297.59,1.79,0
78,Benghazi,LY,1578277397,64,32.12,20.07,286.26,12.71,100
79,Nanakuli,US,1578277567,69,21.39,-158.15,300.93,7.2,20
80,Pevek,RU,1578277334,80,69.7,170.27,251.32,1.72,0
81,Ancud,CL,1578277359,81,-41.87,-73.83,284.15,2.1,90
82,Clyde River,CA,1578277378,52,70.47,-68.59,234.15,8.2,1
83,Bambous Virieux,MU,1578277567,94,-20.34,57.76,297.15,4.6,40
84,Orlik,PL,1578277568,91,53.95,17.74,274.26,5.1,75
85,Bethel,US,1578277315,68,60.79,-161.76,246.15,3.1,1
86,Lethem,GY,1578277568,42,3.38,-59.8,300.57,6.71,4
87,Muborak,UZ,1578277568,86,39.25,65.15,277.67,4.16,100
88,Port Lincoln,AU,1578277568,54,-34.72,135.86,293.18,4.57,2
89,Hithadhoo,MV,1578277337,73,-0.6,73.08,302.22,5.69,100
90,Havre-Saint-Pierre,CA,1578277343,78,50.23,-63.6,260.15,3.1,1
91,Hilo,US,1578277341,69,19.71,-155.08,298.15,6.7,90
92,Huichapan,MX,1578277402,19,20.38,-99.65,286.15,4.1,40
93,Chokurdakh,RU,1578277337,100,70.62,147.9,244.05,0.86,16
94,Lorengau,PG,1578277163,69,-2.02,147.27,302.79,3.83,68
95,Saskylakh,RU,1578277359,92,71.97,114.09,246.14,7.16,100
96,Cockburn Town,TC,1578277377,68,21.46,-71.14,298.41,3.65,2
97,Kongolo,CD,1578277570,97,-5.39,27.0,292.77,1.03,100
98,Lompoc,US,1578277145,58,34.64,-120.46,287.15,8.7,1
99,Provideniya,RU,1578277163,72,64.42,-173.23,249.21,3.62,83
100,Kapaa,US,1578277145,74,22.08,-159.32,300.15,8.7,75
101,Talnakh,RU,1578277428,92,69.49,88.39,266.15,12.0,40
102,Ostrovnoy,RU,1578277398,84,68.05,39.51,262.48,7.03,94
103,Aswan,EG,1578277399,49,24.09,32.9,281.15,3.6,0
104,Cayenne,GF,1578277352,83,4.94,-52.33,299.15,1.5,42
105,Saint-Philippe,CA,1578277343,66,45.36,-73.48,266.48,2.6,90
106,Aloleng,PH,1578277571,52,16.13,119.78,301.74,7.1,7
107,Butterworth,MY,1578277571,62,5.4,100.37,302.15,4.6,20
108,Telixtac,MX,1578277571,52,18.57,-98.77,291.48,0.56,79
109,Salalah,OM,1578277391,78,17.01,54.1,297.15,1.5,75
110,Victoria,BN,1578277228,66,5.28,115.24,303.15,1.5,75
111,Pochutla,MX,1578277572,69,15.74,-96.47,300.15,3.1,5
112,Puerto Baquerizo Moreno,EC,1578277572,86,-0.9,-89.6,297.66,5.06,51
113,Somoto,NI,1578277572,76,13.48,-86.58,294.09,2.24,56
114,Helena,US,1578277567,74,46.59,-112.04,273.15,3.1,20
115,Berlevag,NO,1578277426,75,70.86,29.09,269.42,6.77,100
116,Shitanjing,CN,1578277572,78,39.23,106.34,269.25,0.18,100
117,Zhaotong,CN,1578277573,67,27.34,103.71,282.6,5.31,47
118,Clearlake,US,1578277573,87,38.96,-122.63,283.15,1.5,1
119,Natchez,US,1578277573,62,31.56,-91.4,287.15,3.1,1
120,Huangchuan,CN,1578277573,93,24.57,102.46,288.71,9.0,75
121,Cotonou,BJ,1578277573,73,6.37,2.43,297.15,1.5,20
122,Evensk,RU,1578277574,46,61.92,159.24,254.11,1.99,6
123,Toora-Khem,RU,1578277574,93,52.47,96.11,253.61,0.69,86
124,Avarua,CK,1578277011,83,-21.21,-159.78,301.15,3.1,100
125,Bredasdorp,ZA,1578277327,72,-34.53,20.04,291.15,3.1,100
126,Yatou,CM,1578277430,94,3.63,9.81,299.15,1.0,20
127,Arraial do Cabo,BR,1578277574,86,-22.97,-42.02,297.64,1.12,100
128,Lavrentiya,RU,1578277163,81,65.58,-170.99,249.14,1.87,0
129,Upernavik,GL,1578277321,96,72.79,-56.15,238.46,6.97,94
130,Matara,BI,1578277405,92,-3.48,29.48,286.37,0.47,86
131,Tuktoyaktuk,CA,1578277147,74,69.44,-133.03,242.15,2.6,20
132,Thompson,CA,1578277360,84,55.74,-97.86,259.15,4.6,90
133,Araouane,ML,1578277575,22,18.9,-3.53,286.12,4.64,0
134,Nemuro,JP,1578277148,54,43.32,145.57,271.15,10.3,20
135,Yenagoa,NG,1578277576,74,4.92,6.26,296.25,0.37,4
136,Iqaluit,CA,1578277093,62,63.75,-68.52,246.15,2.6,90
137,Yumen,CN,1578277576,54,40.29,97.04,267.19,6.11,100
138,Shimoda,JP,1578277259,65,34.7,138.93,288.15,3.6,20
139,Borogontsy,RU,1578277576,97,62.67,131.17,253.8,2.58,100
140,Yellowknife,CA,1578277327,82,62.45,-114.38,246.15,2.6,5
141,Luderitz,NA,1578277330,85,-26.65,15.16,290.33,9.28,0
142,Severo-Kurilsk,RU,1578277172,91,50.68,156.12,270.18,3.77,99
143,Praia da Vitoria,PT,1578277577,88,38.73,-27.07,291.15,9.02,75
144,Nisia Floresta,BR,1578277577,83,-6.09,-35.21,300.15,2.6,40
145,Mar del Plata,AR,1578277577,57,-46.43,-67.52,286.72,10.38,64
146,Nikolskoye,RU,1578277339,79,59.7,30.79,269.82,1.0,100
147,Vila Velha,BR,1578277451,74,-3.71,-38.6,303.15,3.6,75
148,Dawei,MM,1578277577,68,14.07,98.19,299.36,3.53,0
149,Tevaitoa,PF,1578277577,77,-16.78,-151.5,300.78,6.14,7
150,Mehamn,NO,1578277578,81,71.03,27.85,264.7,3.81,100
151,Kodiak,US,1578277109,69,39.95,-94.76,276.48,2.9,1
152,Troitskoye,RU,1578277578,89,52.98,84.68,261.75,1.77,0
153,Parvatipuram,IN,1578277578,64,18.78,83.43,292.8,1.73,0
154,Lagunas,PE,1578277579,75,-5.23,-75.68,297.51,1.08,5
155,Ngunguru,NZ,1578277579,52,-35.62,174.5,294.82,4.47,8
156,San Patricio,PY,1578277579,53,-26.98,-56.83,299.04,3.78,0
157,Tautira,PF,1578277428,83,-17.73,-149.15,301.15,2.1,40
158,Borisoglebsk,RU,1578277579,96,51.37,42.08,273.15,2.85,95
159,Rio Gallegos,AR,1578277579,70,-51.62,-69.22,281.15,4.1,20
160,Amapa,HN,1578277346,93,15.09,-87.97,292.15,2.6,75
161,Balabac,PH,1578277579,72,7.99,117.06,301.82,6.92,37
162,Filadelfia,PY,1578277580,35,-22.35,-60.04,300.25,4.54,18
163,Atambua,ID,1578277580,79,-9.11,124.89,299.82,3.01,100
164,Valparaiso,US,1578277457,64,41.47,-87.06,277.15,7.7,90
165,Henties Bay,NA,1578277580,89,-22.12,14.28,290.37,0.89,75
166,Pisco,PE,1578277437,83,-13.71,-76.2,294.26,7.2,65
167,Rjukan,NO,1578277580,96,59.88,8.59,275.37,8.05,100
168,Belmonte,PT,1578277197,60,40.36,-7.35,275.37,0.28,0
169,Bahia Honda,CU,1578277581,59,22.9,-83.16,291.99,5.51,0
170,Broni,IT,1578277581,90,45.07,9.26,278.15,1.0,0
171,Norman Wells,CA,1578277581,73,65.28,-126.83,235.15,1.5,20
172,Narsaq,GL,1578277581,78,60.91,-46.05,265.15,1.44,100
173,Torbay,CA,1578277151,100,47.66,-52.73,272.59,13.4,90
174,Xapuri,BR,1578277581,97,-10.65,-68.5,295.22,0.48,61
175,Egvekinot,RU,1578277581,87,66.32,-179.17,248.13,4.3,0
176,Kifri,IQ,1578277581,59,34.69,44.96,282.39,2.25,15
177,Paithan,IN,1578277582,82,19.48,75.39,286.15,1.0,0
178,Rio Grande,BR,1578277582,84,-32.03,-52.1,295.93,0.45,31
179,Mahebourg,MU,1578277360,94,-20.41,57.7,297.15,4.6,40
180,Nizhniy Kuranakh,RU,1578277582,89,58.84,125.49,264.09,5.67,100
181,Kindu,CD,1578277582,98,-2.95,25.92,293.52,0.46,100
182,Sidi Ali,DZ,1578277334,88,36.1,0.42,280.14,1.25,0
183,Ribeira Grande,PT,1578277583,93,38.52,-28.7,288.73,7.47,100
184,Dukat,AL,1578277583,34,40.25,19.57,279.82,2.24,0
185,Guayaramerin,BO,1578277583,98,-10.82,-65.36,296.07,1.12,81
186,Esperance,AU,1578277337,16,-33.86,121.89,306.15,7.7,0
187,Sorland,NO,1578277320,80,67.67,12.69,278.15,6.2,75
188,Bashtanka,UA,1578277584,84,47.4,32.45,273.89,5.51,94
189,Oyama,JP,1578277584,42,36.31,139.8,290.93,1.5,40
190,Tasiilaq,GL,1578277307,90,65.61,-37.64,266.84,17.37,100
191,Dromolaxia,CY,1578277584,87,34.88,33.59,288.15,1.5,75
192,Hashtrud,IR,1578277585,76,37.48,47.05,269.23,0.17,56
193,Lasa,CY,1578277585,82,34.92,32.53,288.15,8.7,75
194,Outlook,CA,1578277379,78,51.48,-107.04,268.83,4.66,49
195,Santa Marta,CO,1578277585,65,11.24,-74.21,300.15,3.6,93
196,Hofn,IS,1578277586,95,64.25,-15.21,280.95,9.56,100
197,Gazimurskiy Zavod,RU,1578277586,91,51.55,118.33,260.43,1.96,100
198,Nha Trang,VN,1578277586,100,12.24,109.19,297.15,2.6,75
199,Leshukonskoye,RU,1578277345,93,64.9,45.76,266.32,3.76,98
200,Port-Gentil,GA,1578277586,76,-0.72,8.78,300.95,2.53,100
201,Caiaponia,BR,1578277586,99,-16.96,-51.81,292.78,2.07,13
202,Dikson,RU,1578277334,94,73.51,80.55,264.92,7.2,100
203,Hamilton,CA,1578277094,94,43.26,-79.87,273.71,7.7,90
204,Usinsk,RU,1578277169,94,66.0,57.56,260.74,5.72,100
205,Kabinda,CD,1578277587,96,-6.14,24.49,292.26,1.0,100
206,Nouadhibou,MR,1578277389,62,20.93,-17.03,288.15,6.2,25
207,Kimbe,PG,1578277587,74,-5.56,150.15,302.92,2.34,34
208,Oranjemund,ZA,1578277587,93,-28.55,16.43,288.15,2.19,12
209,Vaini,IN,1578277308,88,15.34,74.49,293.15,2.6,75
210,Tecoanapa,MX,1578277313,78,16.99,-99.26,300.15,1.0,40
211,Plettenberg Bay,ZA,1578277588,89,-34.05,23.37,292.02,1.76,99
212,Verkhnevilyuysk,RU,1578277588,99,63.45,120.31,251.04,0.69,87
213,Petropavlovsk-Kamchatskiy,RU,1578277058,59,53.05,158.65,274.15,6.0,75
214,Longyearbyen,NO,1578277321,70,78.22,15.63,255.15,5.7,20
215,Saint-Augustin,CA,1578277589,78,45.63,-73.98,265.93,1.5,20
216,Laguna,BZ,1578277433,73,16.17,-88.94,296.15,3.1,75
217,Fairbanks,US,1578277403,66,64.84,-147.72,246.48,0.96,100
218,Manyana,AU,1578277589,73,-35.26,150.51,295.15,5.7,100
219,Meulaboh,ID,1578277411,76,4.14,96.13,300.15,2.58,29
220,Mount Isa,AU,1578277589,27,-20.73,139.49,310.15,3.6,76
221,Kahului,US,1578277338,65,20.89,-156.47,298.15,8.2,20
222,Menongue,AO,1578277590,96,-14.66,17.68,289.02,1.2,57
223,Bitung,ID,1578277590,66,1.44,125.19,305.15,2.1,40
224,Luanda,AO,1578277272,88,-8.83,13.24,299.15,1.5,40
225,Xiamen,CN,1578277590,77,24.46,118.07,293.15,1.0,0
226,Shilovo,RU,1578277590,92,51.55,39.09,270.15,3.0,100
227,Redlands,US,1578277590,28,34.06,-117.19,292.15,5.1,40
228,Quatre Cocos,MU,1578277327,94,-20.21,57.76,297.15,4.6,40
229,North Bend,US,1578277591,93,43.41,-124.22,281.15,3.6,90
230,Karpathos,GR,1578277591,75,35.51,27.21,285.75,3.14,95
231,Fort Nelson,CA,1578277591,69,58.81,-122.69,250.15,3.6,75
232,Ilulissat,GL,1578277380,65,69.22,-51.1,260.15,6.7,100
233,Ixtapa,MX,1578277592,77,20.71,-105.21,294.82,1.98,5
234,Chuy,UY,1578277338,85,-33.69,-53.46,294.01,5.29,0
235,Old Town,US,1578277592,92,38.98,-76.93,274.26,1.27,1
236,Puerto El Triunfo,SV,1578277592,47,13.27,-88.55,300.15,6.2,0
237,Yar-Sale,RU,1578277592,89,66.83,70.83,260.96,6.53,0
238,Kutum,SD,1578277592,29,14.2,24.66,283.28,1.71,0
239,Tanout,NE,1578277343,29,14.97,8.88,286.25,5.87,86
240,Kalmunai,LK,1578277434,76,7.42,81.82,301.16,6.18,2
241,Vuktyl,RU,1578277593,96,63.86,57.31,262.8,2.73,100
242,Katobu,ID,1578277593,75,-4.94,122.53,301.65,2.91,100
243,Gushi,CN,1578277593,95,32.17,115.65,280.08,2.58,100
244,Jalu,LY,1578277593,63,29.03,21.55,283.05,7.33,0
245,Sterling,US,1578277593,92,39.0,-77.4,274.26,1.5,40
246,Vestmannaeyjar,IS,1578277415,91,63.44,-20.27,280.81,12.73,100
247,Slavyanka,RU,1578277594,53,42.86,131.39,270.17,3.7,100
248,Mayskiy,RU,1578277594,100,43.63,44.06,268.15,1.0,90
249,Margate,AU,1578277396,55,-43.03,147.26,298.15,7.2,20
250,Dongsheng,CN,1578277594,90,29.72,112.52,280.45,3.67,100
251,College,US,1578277594,66,64.86,-147.8,246.48,0.79,100
252,Colquechaca,BO,1578277594,66,-18.7,-66.0,284.75,1.47,0
253,Alofi,NU,1578277385,100,-19.06,-169.92,299.15,4.1,3
254,Bubaque,GW,1578277160,43,11.28,-15.83,298.16,7.82,0
255,Nelson Bay,AU,1578277595,73,-32.72,152.14,297.59,5.7,90
256,Garowe,SO,1578277595,79,8.41,48.48,295.41,3.88,88
257,Okato,NZ,1578277595,62,-39.19,173.88,290.37,7.15,31
258,Dhali,IN,1578277596,94,10.5,77.17,296.15,1.5,40
259,Riyadh,SA,1578277577,87,24.63,46.72,280.15,1.5,0
260,Ambajogai,IN,1578277596,58,18.73,76.39,290.89,4.21,33
261,Rakoshyno,UA,1578277596,78,48.47,22.6,269.82,2.58,1
262,Newcastle,AU,1578277576,73,-32.93,151.78,297.59,5.7,90
263,Sitka,US,1578277335,52,37.17,-99.65,275.37,2.97,0
264,Srednekolymsk,RU,1578277394,84,67.46,153.71,249.34,1.52,28
265,San Carlos del Zulia,VE,1578277597,87,9.0,-71.91,296.03,0.84,0
266,Chitungwiza,ZW,1578277597,88,-18.01,31.07,293.15,4.6,20
267,Ponta do Sol,BR,1578277598,96,-20.63,-46.0,292.37,1.0,2
268,Javanrud,IR,1578277598,96,34.8,46.49,269.54,1.42,100
269,Izhma,RU,1578277598,94,65.01,53.91,260.01,2.79,99
270,Ahipara,NZ,1578277339,76,-35.17,173.16,295.93,0.45,3
271,Shelburne,CA,1578277357,92,44.08,-80.2,272.15,4.1,90
272,Amposta,ES,1578277598,100,40.71,0.58,282.59,3.1,0
273,Port Hedland,AU,1578277598,35,-20.31,118.58,310.15,8.2,97
274,Lebu,ET,1578277335,76,8.96,38.73,285.15,3.6,20
275,Medvezhyegorsk,RU,1578277599,85,62.92,34.47,264.9,3.16,97
276,Algiers,US,1578277599,71,29.94,-90.04,287.15,3.1,1
277,Makokou,GA,1578277599,84,0.56,12.85,294.68,0.44,41
278,Vardo,US,1578277341,75,39.62,-77.74,273.71,2.1,1
279,Te Anau,NZ,1578277599,77,-45.41,167.72,279.56,5.33,60
280,Zambezi,ZM,1578277600,94,-13.55,23.12,292.74,0.89,100
281,Puerto Leguizamo,CO,1578277600,74,-0.19,-74.78,298.72,0.98,79
282,Ornskoldsvik,SE,1578277600,92,63.29,18.72,269.15,1.5,67
283,Banjar,ID,1578277363,66,-7.37,108.54,303.99,0.25,81
284,Broome,GB,1578277347,81,52.47,1.45,281.15,4.6,3
285,Honiara,SB,1578277373,79,-9.43,159.96,305.15,4.6,40
286,Los Llanos de Aridane,ES,1578277601,63,28.66,-17.92,291.15,3.6,40
287,Bonavista,CA,1578277393,96,48.65,-53.11,272.27,17.9,100
288,Lincoln,GB,1578277378,93,53.23,-0.54,281.15,4.6,75
289,Saint Anthony,US,1578277601,85,43.97,-111.68,270.15,4.1,90
290,Ulaanbaatar,MN,1578277601,83,47.92,106.92,250.15,1.0,0
291,Novomykolayivka,UA,1578277601,89,48.54,32.26,273.46,4.36,98
292,San Luis,AR,1578277602,53,-33.3,-66.34,292.07,11.3,62
293,Conde,BR,1578277351,80,-11.81,-37.61,300.1,6.28,100
294,Villa Bruzual,VE,1578277602,68,9.33,-69.12,297.63,3.74,13
295,West Odessa,US,1578277602,27,31.84,-102.48,284.15,3.1,1
296,Santander,PH,1578277494,66,9.42,123.33,303.15,5.1,20
297,Saint-Joseph,FR,1578277602,86,43.56,6.97,283.15,3.1,0
298,Flinders,AU,1578277603,73,-34.58,150.85,295.37,5.7,100
299,Sheltozero,RU,1578277603,68,61.37,35.37,268.61,6.81,47
300,Takoradi,GH,1578277174,58,4.89,-1.75,298.05,2.16,100
301,Chara,GR,1578277603,86,39.42,22.43,279.15,6.7,90
302,Cururupu,BR,1578277603,97,-1.82,-44.87,296.42,0.51,100
303,Nanning,CN,1578277603,83,22.83,108.3,294.15,4.0,40
304,Pathein,MM,1578277604,73,16.78,94.73,299.87,4.48,17
305,Comodoro Rivadavia,AR,1578277326,67,-45.87,-67.48,289.15,6.2,40
306,Faya,SA,1578277414,87,18.39,42.45,287.15,3.1,20
307,Russellville,US,1578277604,75,35.28,-93.13,281.48,1.77,1
308,Hasaki,JP,1578277361,42,35.73,140.83,283.15,6.2,20
309,Sur,OM,1578277396,81,22.57,59.53,292.82,5.2,88
310,Solnechnyy,RU,1578277605,85,50.72,136.64,259.95,1.06,0
311,Santa Cruz de Tenerife,ES,1578277605,93,28.47,-16.25,291.48,2.6,40
312,Vilyuysk,RU,1578277605,100,63.75,121.63,251.8,1.18,82
313,Vila Franca do Campo,PT,1578277605,93,37.72,-25.43,291.15,6.7,75
314,Ulagan,RU,1578277605,75,50.63,87.96,255.18,2.82,0
315,Fortuna,US,1578277320,81,40.6,-124.16,281.48,0.29,1
316,Morristown,US,1578277606,60,36.21,-83.29,280.15,3.1,1
317,Tilichiki,RU,1578277606,70,60.47,166.1,250.52,3.5,83
318,Nanortalik,GL,1578277326,71,60.14,-45.24,271.2,13.2,100
319,Itarema,BR,1578277606,87,-2.92,-39.92,297.68,1.93,43
320,Zyryanka,RU,1578277607,84,65.73,150.89,248.95,1.56,0
321,San,ML,1578277607,21,13.3,-4.9,288.61,3.75,41
322,Baiyin,CN,1578277607,85,36.55,104.13,271.48,3.0,90
323,Impfondo,CD,1578277607,42,1.62,18.06,293.52,0.9,35
324,Karasburg,NA,1578277607,63,-28.01,18.75,288.87,2.67,0
325,Harper,US,1578277379,43,30.3,-99.24,286.15,2.1,1
326,Westport,US,1578277607,50,41.14,-73.36,275.93,2.1,1
327,Serebryanyy Bor,RU,1578277608,88,56.8,124.8,259.8,0.68,100
328,Beringovskiy,RU,1578277172,80,63.05,179.32,251.88,7.17,94
329,Kuruman,ZA,1578277608,16,-27.46,23.43,295.04,3.75,0
330,Nyurba,RU,1578277424,98,63.29,118.35,255.54,1.53,99
331,Escanaba,US,1578277509,86,45.75,-87.06,273.15,6.2,90
332,Huarmey,PE,1578277341,79,-10.07,-78.15,293.49,0.96,38
333,Tulungagung,ID,1578277608,66,-8.06,111.9,303.2,2.35,15
334,Gazanjyk,TM,1578277609,79,39.24,55.52,272.93,1.11,0
335,Castro,CL,1578277308,81,-42.48,-73.76,284.15,2.1,90
336,Kashan,IR,1578277609,51,33.99,51.44,277.33,1.25,0
337,Fowa,NG,1578277609,22,8.92,6.4,298.61,1.07,86
338,San Jorge,PH,1578277609,67,11.98,124.82,301.04,4.24,48
339,Sao Joao da Barra,BR,1578277610,94,-21.64,-41.05,297.2,1.96,100
340,Bowen,AU,1578277610,62,-20.01,148.25,304.82,4.6,40
341,Coihaique,CL,1578277378,66,-45.58,-72.07,284.15,2.1,75
342,Kerman,IR,1578277610,80,30.29,57.06,274.15,4.1,0
343,Mukhen,RU,1578277610,80,48.19,136.14,260.47,0.58,33
344,San Juan del Sur,NI,1578277611,77,11.25,-85.87,300.55,10.91,34
345,Guadalupe y Calvo,MX,1578277611,38,26.09,-106.96,283.02,2.19,99
346,Awbari,LY,1578277611,33,26.59,12.77,278.36,2.64,0
347,Marica,BR,1578277611,88,-22.92,-42.82,298.15,2.6,75
348,La Palma,CO,1578277611,96,5.36,-74.39,293.11,1.16,86
349,Adrar,DZ,1578277339,38,27.87,-0.29,279.15,4.6,0
350,Gboko,NG,1578277612,24,7.32,9.0,294.87,2.96,79
351,Half Moon Bay,US,1578277612,87,37.46,-122.43,285.37,3.1,90
352,Iquitos,PE,1578277612,88,-3.75,-73.25,297.15,0.5,0
353,Havelock,US,1578277342,72,34.88,-76.9,280.15,1.63,1
354,Grand-Santi,GF,1578277612,99,4.27,-54.38,294.17,0.73,21
355,Wum,CM,1578277612,35,6.39,10.08,290.78,0.98,77
356,Umm Lajj,SA,1578277613,50,25.02,37.27,283.33,1.97,0
357,Sri Aman,MY,1578277613,94,1.24,111.46,298.15,0.5,75
358,Sorong,ID,1578277613,56,-0.86,131.25,305.43,2.35,72
359,Hervey Bay,AU,1578277613,58,-25.3,152.85,302.04,5.1,40
360,Strezhevoy,RU,1578277613,92,60.73,77.6,269.15,7.0,90
361,Bajil,ES,1578277613,82,38.23,-2.07,274.57,0.28,0
362,Mabaruma,GY,1578277328,98,8.2,-59.78,293.24,0.49,0
363,Santa Rosa,AR,1578277614,20,-36.62,-64.29,293.78,5.43,100
364,Shancheng,CN,1578277614,70,26.9,117.17,291.71,1.91,4
365,Qixingtai,CN,1578277614,96,30.41,111.89,277.59,4.76,100
366,Rincon,PA,1578277614,85,8.46,-82.28,292.04,1.79,34
367,Medea,DZ,1578277614,100,36.27,2.77,275.15,1.47,20
368,Esmeraldas,BR,1578277615,88,-19.76,-44.31,296.15,5.1,75
369,Chai Badan,TH,1578277615,42,15.2,101.13,308.15,3.11,0
370,Am Timan,TD,1578277615,32,11.04,20.28,290.08,2.49,0
371,Ilanskiy,RU,1578277615,93,56.24,96.06,270.57,4.24,100
372,Talas,KG,1578277376,34,42.52,72.24,270.07,1.49,100
373,Sisimiut,GL,1578277367,96,66.94,-53.67,252.39,7.02,100
374,Kamyshla,RU,1578277615,97,54.11,52.14,267.83,1.43,99
375,Leningradskiy,RU,1578277309,65,69.38,178.42,250.3,1.66,0
376,Edd,ER,1578277616,82,13.93,41.69,298.1,3.15,78
377,Vanavara,RU,1578277616,94,60.35,102.28,263.3,3.69,100
378,Lumberton,US,1578277432,82,30.27,-94.2,288.15,2.6,1
379,Canutama,BR,1578277616,93,-6.53,-64.38,297.11,0.32,23
380,Brae,GB,1578277169,93,60.4,-1.35,283.15,8.7,100
381,Mecca,SA,1578277083,48,21.43,39.83,286.59,1.05,0
382,Hobyo,SO,1578277362,83,5.35,48.53,298.62,5.34,51
383,Camacha,PT,1578277397,72,33.08,-16.33,289.15,5.7,20
384,Miri,NG,1578277617,42,10.31,9.75,287.4,1.3,77
385,Geraldton,CA,1578277308,85,49.72,-86.95,265.15,1.0,90
386,Sinnamary,GF,1578277404,78,5.38,-52.96,299.43,4.67,24
387,Astana,KZ,1578277477,92,51.13,71.43,267.15,1.0,90
388,Lewiston,US,1578277361,67,44.1,-70.21,269.15,2.1,1
389,Masterton,NZ,1578277618,42,-40.95,175.66,294.82,1.34,0
390,Nuuk,GL,1578277618,84,64.17,-51.74,258.15,11.3,100
391,San Andres,PH,1578277618,69,13.32,122.68,300.77,5.77,51
392,Havoysund,NO,1578277379,68,71.0,24.66,269.15,8.7,100
393,Bondoukou,CI,1578277618,31,8.04,-2.8,294.23,0.98,2
394,Kokopo,PG,1578277379,68,-4.34,152.27,302.85,3.37,1
395,Ilhabela,BR,1578277609,84,-23.78,-45.36,297.63,1.82,48
396,Hastings,NZ,1578277619,44,-39.64,176.84,293.45,9.99,44
397,Kruisfontein,ZA,1578277346,87,-34.0,24.73,290.4,1.34,100
398,Pacific Grove,US,1578277619,71,36.62,-121.92,287.15,2.6,1
399,Lagoa,PT,1578277434,76,37.14,-8.45,284.15,4.1,0
400,Zaragoza,SV,1578277620,60,13.59,-89.29,300.15,6.7,0
401,Dingle,PH,1578277366,85,11.0,122.67,299.46,7.32,97
402,Sheregesh,RU,1578277620,82,52.93,87.98,263.14,1.29,0
403,Ejea de los Caballeros,ES,1578277620,93,42.13,-1.14,277.59,4.1,90
404,Torrijos,ES,1578277620,71,39.98,-4.28,278.71,1.38,0
405,Faanui,PF,1578277350,72,-16.48,-151.75,301.14,4.93,12
406,Tranas,SE,1578277621,93,58.04,14.98,279.15,6.7,100
407,Tura,RU,1578277621,89,64.27,100.22,261.87,2.88,100
408,Tigil,RU,1578277336,73,57.8,158.67,259.52,1.14,0
409,Gold Coast,AU,1578277416,58,-28.0,153.41,306.48,6.7,99
410,Nautla,MX,1578277621,85,20.22,-96.78,289.27,0.9,100
411,Chihuahua,MX,1578277546,37,28.66,-106.08,284.82,1.6,5
412,Dong Hoi,VN,1578277622,75,17.48,106.6,297.01,2.33,8
413,Antofagasta,CL,1578277622,77,-23.65,-70.4,293.15,1.5,46
414,Yarada,IN,1578277622,73,17.65,83.27,296.15,3.1,40
415,Aykhal,RU,1578277622,77,65.95,111.51,254.15,3.0,90
416,Goderich,CA,1578277166,86,43.74,-81.71,272.59,6.59,100
417,Darnah,LY,1578277622,59,32.77,22.64,286.38,14.93,100
418,Tuatapere,NZ,1578277623,79,-46.13,167.69,283.15,11.62,100
419,Alanya,TR,1578277050,71,36.55,32.0,285.15,6.7,75
420,Palmas,BR,1578277483,94,-10.18,-48.33,297.15,1.25,75
421,Broken Hill,AU,1578277623,68,-31.97,141.45,291.15,7.2,100
422,Vasilsursk,RU,1578277623,96,56.13,46.01,264.52,1.98,27
423,Tobol,SE,1578277623,92,59.83,12.54,278.15,1.0,90
424,Dunedin,NZ,1578277623,54,-45.87,170.5,285.93,19.67,70
425,Taoudenni,ML,1578277624,21,22.68,-3.98,283.53,2.59,23
426,Ust-Nera,RU,1578277624,100,64.57,143.24,242.56,0.92,100
427,Okhotsk,RU,1578277624,79,59.36,143.24,258.36,4.08,0
428,Rossosh,RU,1578277624,96,50.2,39.58,271.76,3.72,100
429,Paldiski,EE,1578277624,93,59.35,24.08,274.26,6.2,90
430,Tete,MZ,1578277414,100,-16.16,33.59,296.15,0.89,40
431,Vallenar,CL,1578277625,86,-28.58,-70.76,286.96,0.59,0
432,Moskovskiy,RU,1578277625,86,55.6,37.35,273.15,2.0,75
433,Kouango,CF,1578277625,48,4.99,19.98,293.98,0.2,100
434,Kibala,TD,1578277625,55,9.11,18.35,292.15,1.16,0
435,Vikevag,NO,1578277625,93,59.1,5.7,281.15,4.6,90
436,Sant Julia de Loria,AD,1578277625,52,42.46,1.49,277.04,0.46,0
437,Labuhan,ID,1578277602,59,-2.54,115.51,304.3,1.28,100
438,Avera,US,1578277626,67,33.19,-82.53,280.93,1.5,1
439,Auki,NG,1578277626,28,12.18,6.51,290.34,6.19,58
440,Daru,PG,1578277626,57,-9.07,143.21,305.14,2.33,79
441,Beitbridge,ZA,1578277626,41,-22.21,29.99,297.53,3.86,0
442,Mahon,IE,1578277627,93,51.89,-8.4,282.04,10.3,75
443,Skibbereen,IE,1578277627,93,51.55,-9.27,281.15,10.3,75
444,Sao Luiz Gonzaga,BR,1578277627,63,-28.41,-54.96,296.68,3.89,0
445,Nishihara,JP,1578277423,31,35.74,139.53,285.93,4.1,0
446,Alice Springs,AU,1578277627,64,-23.7,133.88,295.15,3.1,75
447,Nome,US,1578277362,82,30.04,-94.42,290.37,2.6,1
448,Kasempa,ZM,1578277627,96,-13.46,25.83,291.18,0.61,100
449,Neryungri,RU,1578277628,86,56.66,124.71,260.1,1.56,94
450,Bloemfontein,ZA,1578277628,82,-29.12,26.22,291.15,2.6,0
451,Aklavik,CA,1578277562,68,68.22,-135.01,246.15,1.0,90
452,Plastun,RU,1578277628,61,44.76,136.29,265.94,5.52,0
453,Almaznyy,RU,1578277628,93,48.03,40.04,275.15,1.0,75
454,Elko,US,1578277628,64,40.83,-115.76,274.15,3.1,90
455,Villarrica,CL,1578277629,93,-39.28,-72.23,285.37,3.1,75
456,Aniva,RU,1578277629,62,46.71,142.53,269.15,5.0,20
457,Bahia de Caraquez,EC,1578277630,88,-0.6,-80.42,298.15,1.0,75
458,Muheza,TZ,1578277630,82,-5.18,38.79,296.64,3.17,100
459,Cabo San Lucas,MX,1578277378,77,22.89,-109.91,294.26,1.38,75
460,Medford,US,1578277339,81,42.33,-122.87,279.15,3.1,90
461,Namibe,AO,1578277607,87,-15.19,12.15,295.83,4.55,68
462,Katangli,RU,1578277630,94,51.71,143.23,270.34,5.99,100
463,Washougal,US,1578277631,75,45.58,-122.35,280.37,3.1,40
464,Nova Vicosa,BR,1578277594,88,-17.89,-39.37,296.71,4.32,100
465,San Buenaventura,MX,1578277631,34,27.06,-101.55,287.96,0.26,53
466,Tessalit,ML,1578277340,28,20.2,1.01,284.28,5.49,3
467,Mastic Beach,US,1578277632,47,40.77,-72.85,275.93,6.2,1
468,Pangnirtung,CA,1578277327,90,66.15,-65.72,229.71,0.78,100
469,Kargasok,RU,1578277352,94,59.06,80.87,260.45,4.78,89
470,Koumac,NC,1578277632,57,-20.56,164.28,300.73,1.35,61
471,Barcelona,ES,1578277006,81,41.38,2.18,282.59,5.1,0
472,Mount Gambier,AU,1578277632,46,-37.83,140.78,295.15,6.7,0
473,Moshenskoye,RU,1578277632,75,58.52,34.59,270.44,3.31,100
474,Nuevitas,CU,1578277633,82,21.55,-77.27,293.15,3.6,94
475,Nikolayevskaya,RU,1578277633,100,43.22,44.21,268.15,1.0,90
476,Ormara,PK,1578277633,60,25.21,64.64,295.8,2.73,83
477,Mogok,MM,1578277633,97,22.92,96.51,287.99,1.74,77
478,Isabela,PH,1578277633,77,10.2,122.99,298.81,6.03,86
479,Puerto Padre,CU,1578277633,94,21.2,-76.61,295.15,3.6,75
480,Port Augusta,AU,1578277634,72,-32.49,137.76,295.37,0.45,20
481,Kewanee,US,1578277634,74,41.25,-89.92,276.15,8.7,1
482,Nioro,GM,1578277161,15,13.79,-15.05,290.96,5.22,0
483,Ahuimanu,US,1578277634,65,21.44,-157.84,300.93,4.6,90
484,Liverpool,GB,1578277634,81,53.41,-2.98,282.15,4.6,90
485,Rome,IT,1578277500,64,41.89,12.48,280.37,0.5,0
486,Inhambane,MZ,1578277634,81,-23.87,35.38,298.94,4.84,36
487,Brazzaville,CD,1578277635,94,-4.27,15.27,298.15,4.1,75
488,Snasa,NO,1578277635,100,64.25,12.38,274.87,6.4,100
489,Goure,NE,1578277635,29,13.98,10.27,289.26,4.47,67
490,Uruzgan,AF,1578277635,99,32.93,66.63,272.2,1.35,100
491,Saint Lawrence,MT,1578277471,43,36.06,14.2,283.71,7.2,0
492,Bukama,CD,1578277636,98,-9.2,25.85,293.94,0.18,100
493,Saint George,GR,1578277636,41,39.45,22.34,279.15,5.7,75
494,Saurimo,AO,1578277389,98,-9.66,20.4,291.24,0.99,100
495,Mudgee,AU,1578277636,42,-32.6,149.59,301.15,4.6,89
496,Skjervoy,NO,1578277636,81,70.03,20.97,274.14,4.46,100
497,Soria,ES,1578277636,90,41.76,-2.46,270.93,1.45,0
498,Jamame,SO,1578277637,84,0.07,42.75,300.67,6.32,100
499,Afsin,TR,1578277637,91,38.25,36.91,268.17,2.02,44
500,Shablykino,RU,1578277637,79,52.85,35.2,269.79,2.48,0
501,Zharkent,KZ,1578277637,74,44.17,80.0,263.83,1.26,0
502,Camabatela,AO,1578277637,98,-8.19,15.37,291.03,0.73,100
503,Storforshei,NO,1578277637,93,66.4,14.52,275.93,1.34,100
504,Abay,KZ,1578277637,84,49.63,72.87,254.15,3.0,77
505,Trinidad,BO,1578277637,93,-14.83,-64.9,297.56,3.11,100
506,Kirensk,RU,1578277638,89,57.78,108.12,260.1,4.05,31
507,Santa Cruz,BR,1578277638,84,-6.22,-36.02,296.61,2.59,96
508,San Rafael,AR,1578277638,20,-34.61,-68.33,293.77,3.12,33
509,Baruun-Urt,MN,1578277638,92,46.68,113.28,258.96,3.15,62
510,Dawlatabad,AF,1578277638,83,36.41,64.91,279.44,3.56,99
511,Tazovskiy,RU,1578277638,91,67.47,78.7,260.55,7.34,8
512,Leh,IN,1578277638,79,34.16,77.58,257.47,1.65,100
513,High Level,CA,1578277639,76,58.52,-117.13,251.15,4.6,75
514,Belomorsk,RU,1578277639,77,64.52,34.76,267.58,6.38,77
515,Kanniyakumari,IN,1578277558,80,8.08,77.57,299.98,11.85,36
516,Hauterive,CA,1578277639,78,49.18,-68.27,265.37,2.1,1
517,Bartica,GY,1578277639,88,6.41,-58.62,295.15,2.1,0
518,Kirakira,SB,1578277639,74,-10.46,161.92,301.99,5.44,97
519,Acobamba,PE,1578277640,78,-11.35,-75.66,280.68,1.69,100
520,Esna,RO,1578277640,95,45.2,27.57,273.74,8.44,99
521,Arlit,NE,1578277640,29,18.74,7.39,285.8,4.14,27
522,Kibre Mengist,ET,1578277640,87,5.87,38.99,286.57,0.93,10
523,Kyabram,AU,1578277640,89,-36.31,145.05,290.93,2.45,100
524,Piacabucu,BR,1578277640,82,-10.41,-36.43,298.43,3.85,100
525,Amberley,NZ,1578277640,48,-43.15,172.73,293.15,2.1,37
526,Buala,SB,1578277641,70,-8.15,159.59,302.89,4.01,47
527,Port Hardy,CA,1578277641,93,50.7,-127.42,275.15,2.6,75
528,Dalaba,GN,1578277641,22,10.69,-12.25,288.76,1.09,42
529,Galeana,MX,1578277641,59,24.83,-100.08,278.15,0.98,0
