,City,Country,Date,Humidity,Lat,Lng,Max Temp,Wind Speed,Cloudiness
0,Punta Arenas,CL,1578168561,44,-53.16,-70.91,288.15,6.7,40
1,Mataura,NZ,1578168561,88,-46.19,168.86,283.71,2.68,98
2,Saint-Joseph,FR,1578168561,87,43.56,6.97,284.26,2.1,0
3,Mar del Plata,AR,1578168495,42,-46.43,-67.52,291.01,6.18,17
4,Madingou,CG,1578168561,95,-4.17,13.56,295.84,1.08,100
5,Cape Town,ZA,1578168561,72,-33.93,18.42,293.71,3.6,29
6,Kuito,AO,1578168561,96,-12.38,16.94,289.53,3.54,100
7,Shimoda,JP,1578168557,89,34.7,138.93,276.48,5.84,75
8,Neftegorsk,RU,1578168561,91,52.8,51.16,272.88,6.18,100
9,Bluff,AU,1578168305,72,-23.58,149.07,295.5,3.79,59
10,Mareeba,AU,1578168562,88,-16.99,145.42,298.15,2.1,75
11,Port Lincoln,AU,1578168555,78,-34.72,135.86,288.14,7.69,100
12,Upernavik,GL,1578168562,97,72.79,-56.15,235.73,5.46,64
13,Albany,US,1578168421,86,42.65,-73.75,279.15,3.1,90
14,Atuona,PF,1578168507,68,-9.8,-139.03,300.68,4.13,5
15,New Norfolk,AU,1578168316,53,-42.78,147.06,285.37,1.93,75
16,Victoria,BN,1578168562,78,5.28,115.24,301.15,3.6,75
17,Esperance,AU,1578168562,71,-33.86,121.89,286.15,4.6,0
18,Krasnorechenskiy,RU,1578168562,83,44.63,135.35,256.01,3.62,0
19,Rikitea,PF,1578168386,77,-23.12,-134.97,298.26,7.42,67
20,Chuy,UY,1578168563,64,-33.69,-53.46,296.62,5.52,13
21,Tuktoyaktuk,CA,1578168519,74,69.44,-133.03,242.15,5.1,40
22,Arraial do Cabo,BR,1578168528,94,-22.97,-42.02,298.15,2.1,75
23,Zhigansk,RU,1578168395,94,66.77,123.37,244.21,4.81,100
24,Baruun-Urt,MN,1578168563,75,46.68,113.28,258.79,3.44,0
25,Katsuura,JP,1578168335,61,33.93,134.5,281.15,6.2,75
26,Williams Lake,CA,1578168563,50,52.13,-122.14,272.15,5.1,40
27,Ushuaia,AR,1578168563,41,-54.81,-68.31,287.15,2.6,40
28,Puerto Ayora,EC,1578168540,58,-0.74,-90.35,303.15,6.2,20
29,Ancud,CL,1578168312,55,-41.87,-73.83,291.15,4.6,0
30,Maningrida,AU,1578168564,83,-12.05,134.23,299.96,1.23,100
31,Butaritari,KI,1578168564,78,3.07,172.79,302.38,6.76,38
32,Hobart,AU,1578168382,53,-42.88,147.33,285.37,2.96,75
33,Kavieng,PG,1578168564,77,-2.57,150.8,301.91,5.42,100
34,Westport,US,1578168271,100,41.14,-73.36,283.71,2.43,90
35,Mana,NG,1578168546,23,13.03,5.27,291.58,5.32,0
36,Constitucion,MX,1578168396,29,23.99,-104.67,286.48,3.6,5
37,Kruisfontein,ZA,1578168565,96,-34.0,24.73,293.25,1.57,49
38,Thompson,CA,1578168529,77,55.74,-97.86,256.15,2.6,90
39,Arlit,NE,1578168378,24,18.74,7.39,288.42,8.48,0
40,Souillac,FR,1578168365,81,45.6,-0.6,279.15,3.6,0
41,Nantucket,US,1578168547,93,41.28,-70.1,281.15,2.6,90
42,Barrow,AR,1578168379,55,-38.31,-60.23,298.3,8.07,75
43,Moose Factory,CA,1578168566,84,51.26,-80.61,259.15,1.66,90
44,Tuy Hoa,VN,1578168566,77,13.08,109.3,296.96,8.04,100
45,Muravlenko,RU,1578168566,92,63.79,74.5,267.98,10.08,100
46,Assens,CH,1578168566,69,46.61,6.62,277.15,2.6,75
47,Torbay,CA,1578168399,98,47.66,-52.73,274.82,6.7,90
48,Georgetown,GY,1578168394,66,6.8,-58.16,303.15,4.1,20
49,Busselton,AU,1578168308,40,-33.64,115.35,287.59,4.75,0
50,Airai,TL,1578168436,80,-8.93,125.41,293.71,2.47,94
51,Tevriz,RU,1578168566,93,57.51,72.4,264.87,3.74,100
52,Hilo,US,1578168313,73,19.71,-155.08,297.15,1.5,40
53,Jamestown,AU,1578168513,52,-33.21,138.6,286.19,6.91,99
54,Norman Wells,CA,1578168393,68,65.28,-126.83,245.15,3.1,90
55,Kyshtovka,RU,1578168567,92,56.56,76.62,267.09,6.33,100
56,Provideniya,RU,1578168567,78,64.42,-173.23,248.25,4.75,60
57,Paysandu,UY,1578168567,43,-32.32,-58.08,302.59,1.34,0
58,Ponta Delgada,PT,1578168387,88,37.73,-25.67,290.15,4.6,20
59,Namatanai,PG,1578168567,90,-3.66,152.44,298.37,1.35,100
60,Baykit,RU,1578168567,91,61.68,96.39,261.96,3.23,100
61,Izazi,TZ,1578168567,82,-7.24,35.72,293.15,1.54,20
62,Ayan,IR,1578168457,83,38.23,44.7,263.76,3.62,95
63,Richards Bay,ZA,1578168271,78,-28.77,32.06,299.3,11.37,95
64,Pisco,PE,1578168308,30,-13.71,-76.2,297.04,6.7,89
65,Dikson,RU,1578168295,82,73.51,80.55,255.51,9.9,100
66,East London,ZA,1578168568,93,-33.02,27.91,297.66,5.25,48
67,Port Hardy,CA,1578168568,93,50.7,-127.42,277.15,1.5,90
68,Sao Joao da Barra,BR,1578168568,74,-21.64,-41.05,301.15,7.2,75
69,Svencionys,LT,1578168568,86,55.15,26.17,272.44,2.96,0
70,Bredasdorp,ZA,1578168422,64,-34.53,20.04,293.15,3.6,25
71,Panzhihua,CN,1578168569,95,26.59,101.72,278.56,0.67,92
72,Pevek,RU,1578168569,64,69.7,170.27,252.21,1.19,0
73,Naduvattam,IN,1578168569,93,11.47,76.57,290.13,1.28,91
74,Talcahuano,CL,1578168569,41,-36.72,-73.12,297.15,9.3,0
75,Anadyr,RU,1578168569,66,64.73,177.51,238.15,5.0,0
76,Polis,CY,1578168569,67,35.04,32.42,289.15,8.7,75
77,Villa Maria,CO,1578168570,43,4.5,-74.09,305.15,5.1,20
78,Lebu,ET,1578168410,55,8.96,38.73,289.15,3.1,20
79,Shorapur,IN,1578168570,84,16.52,76.76,293.71,1.97,0
80,Guerrero Negro,MX,1578168570,23,27.97,-114.04,295.15,1.34,0
81,Karymskoye,RU,1578168570,85,51.62,114.34,257.16,0.72,0
82,Salalah,OM,1578168384,73,17.01,54.1,298.15,4.6,20
83,Isangel,VU,1578168570,78,-19.55,169.27,298.09,6.47,5
84,Cockburn Town,TC,1578168511,69,21.46,-71.14,301.15,7.2,40
85,Saint-Philippe,CA,1578168425,92,45.36,-73.48,273.71,5.7,90
86,Nara,JP,1578168570,65,34.68,135.8,280.15,8.2,40
87,Tiksi,RU,1578168571,86,71.64,128.87,246.01,3.39,77
88,Nikolskoye,RU,1578168328,86,59.7,30.79,274.26,7.0,90
89,Puerto Quijarro,BO,1578168571,38,-19.0,-57.72,308.15,2.6,40
90,San Patricio,PY,1578168373,31,-26.98,-56.83,305.84,1.49,0
91,Biak,ID,1578168571,79,-0.91,122.88,300.71,6.02,100
92,Port Alfred,ZA,1578168549,98,-33.59,26.89,294.82,0.87,100
93,North Fort Myers,US,1578168287,88,26.67,-81.88,299.26,4.6,90
94,Polyarnyy,RU,1578168572,73,69.2,33.45,267.15,6.0,75
95,Akdepe,TM,1578168572,92,42.05,59.39,270.15,2.88,40
96,Ilulissat,GL,1578168573,66,69.22,-51.1,262.15,5.1,40
97,Carutapera,BR,1578168573,74,-1.2,-46.02,301.28,4.31,100
98,Makakilo City,US,1578168573,88,21.35,-158.09,297.15,10.3,90
99,Komsomolskiy,RU,1578168408,90,67.55,63.78,269.5,8.02,78
100,Lujan,AR,1578168573,42,-46.57,-67.67,291.01,6.18,17
101,Nove Hrady,CZ,1578168573,87,48.79,14.78,276.48,5.36,100
102,Bambous Virieux,MU,1578168306,94,-20.34,57.76,299.26,6.08,40
103,Severo-Kurilsk,RU,1578168573,73,50.68,156.12,263.34,1.39,100
104,Tuatapere,NZ,1578168553,88,-46.13,167.69,283.71,2.68,100
105,Avarua,CK,1578168574,88,-21.21,-159.78,299.15,2.6,1
106,Saskylakh,RU,1578168381,95,71.97,114.09,243.48,2.7,62
107,Eganville,CA,1578168574,74,45.54,-77.1,272.59,2.6,90
108,Mpulungu,ZM,1578168574,92,-8.77,31.12,290.41,0.42,100
109,Ambilobe,MG,1578168574,82,-13.19,49.05,299.71,2.7,73
110,Kodiak,US,1578168503,44,39.95,-94.76,279.26,4.6,1
111,Santiago de Cao,PE,1578168578,78,-7.96,-79.24,296.15,4.6,20
112,Hermanus,ZA,1578168578,87,-34.42,19.24,291.48,1.34,5
113,Banda Aceh,ID,1578168478,87,5.56,95.32,295.28,2.3,0
114,Sola,TZ,1578168579,81,-3.17,33.8,291.94,2.49,1
115,Banjar,ID,1578168579,95,-7.37,108.54,296.42,0.55,80
116,Sorland,NO,1578168579,60,67.67,12.69,273.83,8.76,95
117,Vagay,RU,1578168579,93,57.94,69.02,266.22,3.96,100
118,Alofi,NU,1578168579,83,-19.06,-169.92,300.15,3.6,0
119,Teahupoo,PF,1578168477,66,-17.83,-149.27,303.15,1.5,40
120,Rapid Valley,US,1578168579,41,44.06,-103.15,288.15,4.6,1
121,Aktau,KZ,1578168350,85,43.65,51.16,266.15,5.0,24
122,Sai Buri,TH,1578168579,98,6.7,101.62,294.14,1.56,38
123,Mahebourg,MU,1578168580,94,-20.41,57.7,299.26,3.06,40
124,Basoko,CD,1578168580,53,1.23,23.61,295.68,0.97,91
125,Bethel,US,1578168534,75,60.79,-161.76,250.15,2.6,1
126,Rio Gallegos,AR,1578168446,52,-51.62,-69.22,290.15,9.3,40
127,Itoman,JP,1578168580,77,26.12,127.67,291.15,3.6,75
128,Chokurdakh,RU,1578168580,98,70.62,147.9,247.2,0.36,73
129,Sarany,RU,1578168580,92,58.55,58.76,269.69,6.41,100
130,Beloha,MG,1578168580,85,-25.17,45.06,296.05,5.89,0
131,Burns Lake,CA,1578168580,81,54.23,-125.76,270.9,2.41,86
132,Sobolevo,RU,1578168580,92,54.43,31.9,272.45,5.38,67
133,Emmett,US,1578168581,45,43.87,-116.5,283.15,8.2,75
134,Bayir,TR,1578168324,60,37.27,28.22,279.15,1.5,0
135,Ribeira Grande,PT,1578168581,88,38.52,-28.7,291.15,5.1,40
136,Mount Pleasant,US,1578168523,26,33.16,-94.97,289.15,2.1,1
137,Rock Sound,BS,1578168581,85,24.9,-76.2,298.55,6.42,67
138,Ahuimanu,US,1578168581,88,21.44,-157.84,297.15,10.3,90
139,Yellowknife,CA,1578168521,84,62.45,-114.38,258.15,6.7,90
140,Port Blair,IN,1578168581,74,11.67,92.75,300.4,4.25,98
141,Lorengau,PG,1578168407,72,-2.02,147.27,302.21,4.05,90
142,Burghead,GB,1578168582,87,57.7,-3.49,282.15,3.1,75
143,Lasa,CY,1578168582,67,34.92,32.53,289.15,8.7,75
144,Qaqortoq,GL,1578168582,86,60.72,-46.03,270.15,2.04,75
145,Port Elizabeth,US,1578168582,93,39.31,-74.98,287.59,3.1,90
146,Akhisar,TR,1578168582,52,38.92,27.84,275.0,1.04,0
147,Tasiilaq,GL,1578168582,86,65.61,-37.64,270.15,5.1,100
148,Hong Gai,VN,1578168583,88,20.96,107.09,293.15,2.1,89
149,Almaznyy,RU,1578168583,77,48.03,40.04,273.15,4.0,0
150,Ponta do Sol,BR,1578168583,89,-20.63,-46.0,295.55,0.9,100
151,Alice Springs,AU,1578168583,77,-23.7,133.88,293.15,4.6,90
152,The Valley,AI,1578168347,61,18.22,-63.06,302.15,5.1,20
153,Strezhevoy,RU,1578168583,92,60.73,77.6,268.15,7.0,90
154,Georgiyevka,RU,1578168584,92,52.25,40.45,271.41,4.76,100
155,Kristiansund,NO,1578168584,80,63.12,7.73,275.15,10.3,86
156,Linhai,CN,1578168584,95,28.86,121.14,284.82,1.44,100
157,Bathsheba,BB,1578168584,65,13.22,-59.52,301.15,7.2,40
158,Hofn,IS,1578168367,74,64.25,-15.21,280.41,16.65,67
159,Talaya,RU,1578168584,85,55.79,84.89,269.15,9.0,40
160,Svetlogorsk,RU,1578168405,85,53.14,59.15,268.15,10.0,40
161,Kahului,US,1578168581,78,20.89,-156.47,298.15,8.2,20
162,Highland Springs,US,1578168584,77,37.55,-77.33,290.37,4.6,40
163,Saint-Georges,CA,1578168536,83,46.12,-70.67,274.82,0.89,100
164,Wenling,CN,1578168585,95,28.38,121.38,284.82,4.24,100
165,Hervey Bay,AU,1578168585,82,-25.3,152.85,294.82,3.1,75
166,Morgan City,US,1578168585,39,29.7,-91.21,291.15,3.6,1
167,Caconda,AO,1578168369,97,-13.73,15.06,288.88,2.72,100
168,Kapaa,US,1578168542,88,22.08,-159.32,297.15,8.7,90
169,Baculin,PH,1578168585,92,7.45,126.58,294.01,2.18,18
170,Yulara,AU,1578168586,100,-25.24,130.99,290.15,3.1,90
171,Verkhoyansk,RU,1578168462,90,67.55,133.39,238.63,0.97,0
172,Cabedelo,BR,1578168586,62,-6.97,-34.84,302.15,5.7,20
173,Erenhot,CN,1578168505,71,43.65,111.97,264.78,3.92,100
174,Yiyang,CN,1578168586,86,28.59,112.35,280.21,2.92,100
175,Madimba,CM,1578168354,83,4.42,9.93,301.15,1.14,20
176,Orodara,BF,1578168586,37,10.98,-4.92,294.15,2.1,40
177,Jizan,SA,1578168586,74,16.89,42.56,301.15,2.6,75
178,Laguna,BZ,1578168586,66,16.17,-88.94,303.15,4.1,40
179,Kjollefjord,NO,1578168586,75,70.95,27.35,268.01,10.77,100
180,Betong,MY,1578168587,99,5.77,101.07,291.33,1.46,30
181,Kaya,NG,1578168587,30,13.31,12.68,290.68,5.87,52
182,Tanabe,JP,1578168587,73,33.73,135.39,279.26,9.89,0
183,Carnarvon,ZA,1578168502,24,-30.97,22.13,295.66,6.52,0
184,La Ronge,CA,1578168587,85,55.1,-105.3,265.15,7.7,90
185,Manbij,SY,1578168587,93,36.53,37.96,277.15,2.1,90
186,Beringovskiy,RU,1578168587,75,63.05,179.32,250.68,8.03,0
187,Muros,ES,1578168588,100,42.77,-9.06,283.71,2.1,0
188,Hay River,CA,1578168588,92,60.82,-115.79,260.15,3.6,90
189,Pesqueria,MX,1578168588,28,25.78,-100.05,293.15,1.01,5
190,Khatanga,RU,1578168408,85,71.98,102.47,245.31,3.93,0
191,La Asuncion,AR,1578168588,54,-26.05,-65.39,296.27,2.4,42
192,Pozo Colorado,PY,1578168588,16,-23.49,-58.8,310.03,3.3,0
193,Vaini,IN,1578168588,75,15.34,74.49,288.29,0.6,0
194,Fushe-Arrez,AL,1578168588,56,42.06,20.02,272.64,4.12,22
195,Vila Franca do Campo,PT,1578168523,88,37.72,-25.43,290.15,4.6,20
196,Sao Jose da Coroa Grande,BR,1578168585,76,-8.9,-35.15,299.98,6.45,100
197,Panaba,MX,1578168589,75,21.28,-88.27,296.5,6.47,100
198,Nizhniy Baskunchak,RU,1578168589,91,48.22,46.83,271.47,4.14,0
199,Naze,NG,1578168589,57,5.43,7.07,299.15,2.1,100
200,Hasaki,JP,1578168589,58,35.73,140.83,273.15,2.1,20
201,Milas,TR,1578168589,60,37.31,27.78,279.15,1.5,0
202,Gombe,NG,1578168589,33,10.28,11.16,292.31,5.71,5
203,Paamiut,GL,1578168450,72,61.99,-49.67,270.04,5.42,100
204,Antofagasta,CL,1578168471,64,-23.65,-70.4,295.37,7.2,20
205,Castro,CL,1578168511,55,-42.48,-73.76,291.15,4.6,0
206,Antalaha,MG,1578168590,84,-14.9,50.28,299.26,1.34,100
207,Kuminskiy,RU,1578168590,94,58.67,66.57,268.01,4.3,95
208,Te Anau,NZ,1578168590,82,-45.41,167.72,281.97,3.64,100
209,Vienna,AT,1578167942,70,48.21,16.37,278.71,11.3,75
210,Takahashi,JP,1578168590,93,34.82,133.52,276.48,1.49,77
211,Iqaluit,CA,1578168367,68,63.75,-68.52,247.15,17.0,75
212,North Bend,US,1578168590,81,43.41,-124.22,285.93,3.6,1
213,Tulun,RU,1578168590,89,54.56,100.58,264.5,1.04,99
214,Avera,US,1578168591,55,33.19,-82.53,293.15,3.1,90
215,Gat,SN,1578168591,38,14.69,-16.54,301.15,5.1,30
216,Qaanaaq,GL,1578168310,61,77.48,-69.36,232.65,2.28,0
217,Portsmouth,GB,1578168591,87,50.8,-1.08,281.48,1.0,75
218,Tena,EC,1578168591,52,-0.99,-77.82,304.15,4.1,40
219,Caravelas,BR,1578168591,84,-17.73,-39.27,298.92,3.97,100
220,Sibolga,ID,1578168426,96,1.74,98.78,295.07,1.49,86
221,Faanui,PF,1578168591,77,-16.48,-151.75,300.62,5.41,100
222,Isabela,PH,1578168591,95,10.2,122.99,293.39,4.41,33
223,San Cristobal,HN,1578168559,50,14.68,-86.92,300.14,4.19,67
224,Makokou,GA,1578168592,85,0.56,12.85,296.49,1.18,33
225,Vestmannaeyjar,IS,1578168592,76,63.44,-20.27,279.73,12.48,91
226,Tigzirt,DZ,1578168592,94,36.57,4.2,277.47,1.05,7
227,Mayo,CA,1578168592,69,63.59,-135.9,250.15,1.0,90
228,Jutai,BR,1578168592,95,-1.71,-47.89,298.15,1.13,100
229,Yuci,CN,1578168592,40,37.68,112.73,274.15,5.0,100
230,Niquelandia,BR,1578168592,96,-14.47,-48.46,294.1,2.33,100
231,Grand Gaube,MU,1578168383,94,-20.01,57.66,299.26,5.38,40
232,Vao,EE,1578168592,79,59.1,26.19,272.69,4.57,1
233,Henties Bay,NA,1578168593,90,-22.12,14.28,289.82,1.34,100
234,Kudinovo,RU,1578168593,83,55.76,38.2,274.26,4.0,75
235,Saint-Francois,FR,1578168593,74,46.42,3.91,275.15,1.5,75
236,Pitimbu,BR,1578168593,62,-7.47,-34.81,302.15,5.7,20
237,Wanaka,NZ,1578168593,57,-44.7,169.14,285.93,4.47,67
238,Zakamensk,RU,1578168593,84,50.38,103.29,255.33,1.14,100
239,Atar,MR,1578168541,20,20.52,-13.05,288.67,5.49,0
240,Suntar,RU,1578168593,99,62.16,117.65,253.14,0.78,97
241,Saint-Augustin,CA,1578168593,92,45.63,-73.98,273.71,5.7,90
242,Half Moon Bay,US,1578168303,87,37.46,-122.43,289.26,3.6,75
243,Taltal,CL,1578168339,71,-25.41,-70.49,291.2,2.65,0
244,Wladyslawowo,PL,1578168594,86,54.79,18.4,275.37,7.2,20
245,Palmer,AU,1578168317,87,-34.85,139.16,286.48,3.6,90
246,Kirakira,SB,1578168594,84,-10.46,161.92,300.12,4.9,63
247,Natal,BR,1578168594,66,-5.81,-35.21,303.15,6.7,40
248,Tabou,CI,1578168442,62,4.42,-7.36,296.19,1.4,0
249,Srednekolymsk,RU,1578168594,55,67.46,153.71,255.22,1.01,88
250,San Quintin,PH,1578168310,79,17.54,120.52,293.61,2.18,65
251,Kuusamo,FI,1578168595,85,65.96,29.19,268.15,5.7,75
252,Miquelon,PM,1578168595,86,47.1,-56.38,276.15,4.1,75
253,Luklukan,PH,1578168595,77,14.33,122.71,298.68,12.25,83
254,Bethlehem,US,1578168491,100,40.62,-75.38,284.26,2.6,75
255,Mulchen,CL,1578168595,17,-37.72,-72.23,301.0,5.05,0
256,Lompoc,US,1578168430,50,34.64,-120.46,290.37,1.5,1
257,Tevaitoa,PF,1578168546,78,-16.78,-151.5,300.56,5.1,100
258,Istok,PL,1578168595,84,52.66,23.48,275.93,1.34,100
259,Daru,PG,1578168595,80,-9.07,143.21,297.97,1.03,100
260,Buraydah,SA,1578168595,47,26.33,43.97,288.15,9.8,75
261,Adrar,DZ,1578168390,27,27.87,-0.29,284.15,4.1,85
262,Puerto Colombia,CO,1578168596,55,10.99,-74.96,305.15,5.1,20
263,Hirara,JP,1578168596,70,24.8,125.28,294.33,6.39,50
264,Ostrovnoy,RU,1578168596,86,68.05,39.51,268.88,11.5,100
265,Clyde River,CA,1578168596,67,70.47,-68.59,242.15,4.1,75
266,Nome,US,1578168319,32,30.04,-94.42,293.71,3.6,1
267,Yeppoon,AU,1578168596,73,-23.13,150.74,295.15,1.5,100
268,Prainha,BR,1578168597,54,-1.8,-53.48,304.81,1.19,78
269,Grindavik,IS,1578168597,80,63.84,-22.43,277.15,11.3,75
270,Celestun,MX,1578168597,75,20.87,-90.4,296.28,10.28,17
271,Esna,RO,1578168597,74,45.2,27.57,274.15,2.6,75
272,Nemuro,JP,1578168597,62,43.32,145.57,268.53,6.63,21
273,Ponyri,RU,1578168597,100,52.32,36.3,272.15,3.0,90
274,Pointe Michel,DM,1578168597,78,15.25,-61.38,300.15,0.5,75
275,Darhan,MN,1578168597,84,49.49,105.92,256.74,1.17,100
276,Rocha,UY,1578168597,52,-34.48,-54.34,298.07,6.67,0
277,Gizo,IL,1578168598,87,31.8,34.94,285.15,5.7,40
278,Teeli,RU,1578168598,74,51.01,90.2,255.63,0.32,100
279,Krasnyy Chikoy,RU,1578168598,86,50.36,108.75,258.03,0.39,100
280,Klaksvik,FO,1578168388,100,62.23,-6.59,280.15,6.2,100
281,Sopelana,ES,1578168598,93,43.38,-2.98,285.37,1.5,75
282,Valleyview,CA,1578168598,59,55.07,-117.28,272.42,8.42,59
283,Hamilton,CA,1578168372,80,43.26,-79.87,276.48,3.1,90
284,San Juan Evangelista,MX,1578168598,60,17.88,-95.14,297.15,7.7,90
285,Palmas de Monte Alto,BR,1578168599,93,-14.26,-43.16,295.62,0.86,100
286,Grants,US,1578168507,45,35.15,-107.85,279.15,3.33,1
287,Sao Filipe,CV,1578168599,77,14.9,-24.5,294.59,4.84,39
288,Maryville,US,1578168354,55,35.76,-83.97,282.15,5.1,90
289,Goure,NE,1578168599,27,13.98,10.27,291.48,4.92,15
290,Talnakh,RU,1578168599,77,69.49,88.39,255.15,10.0,100
291,Saint-Pierre,FR,1578168599,87,48.95,4.24,280.15,4.1,90
292,Pacific Grove,US,1578168599,67,36.62,-121.92,289.82,2.6,1
293,Vidim,CZ,1578168600,86,50.47,14.53,278.15,8.7,75
294,Mayor Pablo Lagerenza,PY,1578168600,24,-19.93,-60.77,309.0,4.16,0
295,Mabaruma,GY,1578168600,58,8.2,-59.78,299.54,2.45,31
296,Vilyuysk,RU,1578168600,99,63.75,121.63,243.36,1.46,95
297,Sartana,UA,1578168600,89,47.17,37.7,278.14,6.62,96
298,Malahide,IE,1578168600,87,53.45,-6.15,281.48,3.6,75
299,Santa Marta,CO,1578168399,55,11.24,-74.21,306.15,3.1,20
300,Kieta,PG,1578168532,72,-6.22,155.63,301.28,1.71,7
301,Abbotsford,CA,1578168601,70,49.05,-122.33,281.48,5.7,75
302,Kamina,CD,1578168601,96,-8.74,25.0,291.85,1.59,100
303,Christchurch,NZ,1578168601,87,-43.53,172.64,287.04,5.1,100
304,Saldanha,PT,1578168601,86,41.42,-6.55,276.49,2.06,0
305,Shiyan,CN,1578168601,87,32.65,110.78,278.45,2.5,100
306,Mongu,ZM,1578168601,94,-15.27,23.14,293.23,2.87,100
307,Kaitangata,NZ,1578168602,86,-46.28,169.85,282.72,3.56,100
308,Saint George,GR,1578168602,64,39.45,22.34,279.82,2.6,100
309,Podgorenskiy,RU,1578168602,88,50.4,39.64,274.04,5.02,100
310,Canutama,BR,1578168602,93,-6.53,-64.38,300.16,1.11,100
311,Cherskiy,RU,1578168603,58,68.75,161.3,253.78,2.97,31
312,Susner,IN,1578168603,68,23.94,76.1,284.76,2.39,0
313,Wilmington,US,1578168456,100,39.75,-75.55,285.93,3.42,90
314,Cabo San Lucas,MX,1578168366,36,22.89,-109.91,299.26,2.6,5
315,Havlickuv Brod,CZ,1578168603,80,49.61,15.58,277.15,11.8,90
316,Pacifica,US,1578168603,87,37.61,-122.49,289.26,4.1,75
317,Turayf,SA,1578168374,87,31.68,38.65,280.15,2.1,40
318,Nishihara,JP,1578168603,65,35.74,139.53,278.15,7.7,20
319,Aparecida do Taboado,BR,1578168604,78,-20.08,-51.1,300.53,2.72,17
320,Berlevag,NO,1578168604,73,70.86,29.09,269.59,14.44,100
321,Gravdal,NO,1578168604,76,59.79,5.78,275.93,3.6,75
322,Karratha,AU,1578168605,73,-20.74,116.85,301.8,8.04,100
323,San Andres,PH,1578168605,82,13.32,122.68,296.86,6.11,90
324,Jamsa,FI,1578168605,68,61.86,25.19,272.59,7.2,75
325,Magistralnyy,RU,1578168605,89,56.17,107.45,262.44,1.74,100
326,Ust-Nera,RU,1578168605,98,64.57,143.24,249.09,0.97,94
327,Dehloran,IR,1578168605,55,32.69,47.27,286.58,3.41,0
328,Chabahar,IR,1578168606,78,25.29,60.65,294.38,1.51,1
329,Havelock,US,1578168471,82,34.88,-76.9,299.15,7.2,90
330,Coquimbo,CL,1578168307,72,-29.95,-71.34,292.15,6.2,40
331,Blansko,CZ,1578168606,86,49.36,16.64,277.04,5.1,90
332,Fort Saint James,CA,1578168606,80,54.43,-124.25,271.41,3.88,66
333,Longyearbyen,NO,1578168331,71,78.22,15.63,257.15,4.6,40
334,Smiths Falls,CA,1578168493,87,44.9,-76.02,273.71,3.1,75
335,Padang,ID,1578168607,92,-0.92,100.36,293.53,2.47,100
336,Shaunavon,CA,1578168607,69,49.65,-108.41,276.3,12.26,98
337,Aligudarz,IR,1578168607,83,33.4,49.69,272.06,1.63,3
338,Bowen,AU,1578168362,83,-20.01,148.25,296.15,2.6,75
339,Vega de Alatorre,MX,1578168607,61,20.03,-96.65,294.06,9.26,7
340,Kavaratti,IN,1578168607,69,10.57,72.64,300.02,3.97,66
341,Quatre Cocos,MU,1578168607,94,-20.21,57.76,299.26,7.04,40
342,Lecce,IT,1578168583,76,40.36,18.17,283.15,5.1,0
343,Ilula,TZ,1578168608,82,-7.68,36.04,293.15,1.83,20
344,Acari,BR,1578168608,30,-6.44,-36.64,305.22,5.19,92
345,Cidreira,BR,1578168608,80,-30.17,-50.22,296.02,7.94,23
346,Havoysund,NO,1578168608,85,71.0,24.66,269.15,9.8,100
347,Vanderhoof,CA,1578168608,77,54.02,-124.02,271.98,4.43,60
348,Cayenne,GF,1578168608,70,4.94,-52.33,302.15,4.1,75
349,Bereda,ES,1578168608,93,43.27,-7.54,281.48,1.0,99
350,Tabas,IR,1578168608,66,33.6,56.92,282.15,1.0,100
351,Skegness,GB,1578168609,87,53.14,0.34,281.48,3.6,75
352,Soe,EE,1578168609,86,57.91,26.05,274.82,5.7,66
353,Muisne,EC,1578168609,79,0.61,-80.02,302.15,5.1,75
354,Vanimo,PG,1578168609,81,-2.67,141.3,301.17,6.29,100
355,Bonavista,CA,1578168474,85,48.65,-53.11,271.5,4.2,68
356,Montrose,GB,1578168609,87,56.71,-2.47,281.15,7.7,75
357,Tekeli,KZ,1578168609,67,44.86,78.76,262.94,2.9,63
358,Maniitsoq,GL,1578168357,58,65.42,-52.9,267.39,1.88,100
359,Francistown,BW,1578168610,23,-21.17,27.5,303.15,1.5,51
360,Berdychiv,UA,1578168610,87,49.89,28.58,273.59,3.21,100
361,Zhuanghe,CN,1578168610,63,39.7,122.97,268.15,2.22,0
362,Labuhan,ID,1578168610,89,-2.54,115.51,296.9,0.88,100
363,Ubinskoye,RU,1578168610,93,55.31,79.68,269.01,8.2,100
364,Yumen,CN,1578168610,63,40.29,97.04,264.94,1.9,100
365,Tautira,PF,1578168610,66,-17.73,-149.15,303.15,1.5,40
366,Lazaro Cardenas,MX,1578168610,35,28.39,-105.62,290.93,2.6,5
367,Zavodouspenskoye,RU,1578168611,85,56.86,65.02,269.15,3.0,90
368,Flinders,AU,1578168611,59,-34.58,150.85,294.26,5.1,0
369,Poso,ID,1578168611,89,-1.4,120.75,292.96,0.72,100
370,Tallahassee,US,1578168611,59,30.44,-84.28,293.15,5.1,40
371,Les Cayes,HT,1578168611,70,18.19,-73.75,300.7,3.42,0
372,Goderich,CA,1578168611,73,43.74,-81.71,274.26,1.34,94
373,Manthani,IN,1578168611,76,18.65,79.67,291.61,2.35,0
374,Mhlume,SZ,1578168611,65,-26.03,31.81,301.15,3.1,38
375,Port Arthur,US,1578168611,32,29.9,-93.93,293.15,3.6,1
376,Balabac,PH,1578168612,78,7.99,117.06,300.07,7.99,77
377,Saint-Donat-de-Montcalm,CA,1578168612,94,46.32,-74.22,267.35,1.21,100
378,Requena,ES,1578168612,87,39.49,-1.1,282.04,2.6,14
379,Lichfield,GB,1578168612,75,52.68,-1.83,280.37,2.1,75
380,Lagoa,PT,1578168612,87,37.14,-8.45,285.93,2.1,0
381,Kulu,CD,1578168612,54,3.47,23.69,295.39,0.25,75
382,Abeokuta,NG,1578168612,65,7.16,3.35,298.15,1.0,100
383,Dunda,IN,1578168612,82,30.62,78.32,273.1,1.86,0
384,Camacha,PT,1578168613,77,33.08,-16.33,291.15,2.6,75
385,Mehamn,NO,1578168550,74,71.03,27.85,267.5,10.94,100
386,Bilma,NE,1578168613,34,18.69,12.92,282.88,1.45,0
387,Mogadishu,SO,1578168617,83,2.04,45.34,300.18,6.77,0
388,Sechura,PE,1578168384,92,-5.56,-80.82,294.43,8.15,100
389,Nanortalik,GL,1578168617,89,60.14,-45.24,272.23,6.91,100
390,Terney,RU,1578168617,73,45.05,136.61,257.47,4.19,0
391,Cape Girardeau,US,1578168498,56,37.31,-89.52,279.15,5.1,90
392,Lokoja,NG,1578168618,23,7.8,6.74,298.21,0.48,99
393,Tselinnoye,UA,1578168618,85,45.9,34.18,276.23,2.68,50
394,Codrington,AU,1578168410,93,-28.95,153.24,295.15,2.53,0
395,Maceio,BR,1578168357,62,-9.67,-35.74,303.15,8.2,90
396,Sawtell,AU,1578168618,83,-30.38,153.1,295.15,4.6,0
397,Ahipara,NZ,1578168551,94,-35.17,173.16,292.59,6.21,100
398,Elko,US,1578168618,60,40.83,-115.76,278.15,2.1,90
399,Black River,JM,1578168618,79,18.03,-77.85,302.59,7.2,20
400,Soyo,AO,1578168619,94,-6.13,12.37,299.15,2.6,75
401,Murchison,AU,1578168593,31,-36.62,145.22,289.82,9.87,100
402,Husavik,CA,1578168619,91,50.56,-96.99,269.82,2.24,100
403,Mokrous,RU,1578168619,85,51.24,47.51,272.74,6.44,100
404,Haysville,US,1578168619,35,37.56,-97.35,281.48,5.1,1
405,Kultuk,RU,1578168619,73,51.73,103.71,259.66,1.72,7
406,Eyemouth,GB,1578168619,81,55.87,-2.09,281.48,4.1,62
407,Manokwari,ID,1578168620,84,-0.87,134.08,295.86,0.64,100
408,Lavrentiya,RU,1578168620,85,65.58,-170.99,249.16,5.0,78
409,Yar-Sale,RU,1578168620,95,66.83,70.83,271.34,7.05,100
410,Birao,CF,1578168620,22,10.3,22.78,294.21,5.02,0
411,Ferme-Neuve,CA,1578168620,91,46.7,-75.45,268.61,2.0,100
412,Ajdabiya,LY,1578168620,66,30.75,20.22,287.86,4.42,32
413,Rorvik,NO,1578168620,86,64.86,11.24,273.15,9.22,93
414,Necochea,AR,1578168620,56,-38.55,-58.74,297.5,5.96,3
415,Tsiroanomandidy,MG,1578168620,87,-18.77,46.05,294.19,0.99,76
416,Livani,LV,1578168621,83,56.35,26.18,273.26,4.01,38
417,Tazovskiy,RU,1578168621,93,67.47,78.7,262.93,8.2,100
418,Jardim,BR,1578168621,56,-21.48,-56.15,302.62,2.47,96
419,Conway,US,1578168621,37,35.09,-92.44,285.15,5.1,1
420,Winchester,GB,1578168621,87,51.06,-1.31,281.48,1.0,75
421,Mitsamiouli,KM,1578168550,79,-11.38,43.28,300.82,2.64,100
422,Guiong,PH,1578168621,93,6.42,122.03,295.13,1.46,10
423,Dongning,CN,1578168621,83,44.06,131.12,257.7,2.65,0
424,Vanavara,RU,1578168621,94,60.35,102.28,257.49,2.46,100
425,Brae,GB,1578168622,93,60.4,-1.35,279.15,11.3,100
426,Jaguaribe,BR,1578168622,50,-5.88,-38.62,302.41,1.14,74
427,Kautokeino,NO,1578168622,81,69.01,23.04,259.58,3.32,33
428,Navalmoral de la Mata,ES,1578168622,81,39.89,-5.54,278.15,1.34,0
429,Choya,RU,1578168622,86,52.01,86.55,264.22,1.34,99
430,Ilebo,CD,1578168398,96,-4.33,20.59,295.17,0.83,100
431,Kralendijk,BQ,1578168622,62,12.15,-68.27,303.15,5.1,0
432,Samarai,PG,1578168622,81,-10.62,150.67,299.31,0.56,26
433,Pangnirtung,CA,1578168622,77,66.15,-65.72,256.15,3.1,75
434,Aasiaat,GL,1578168623,85,68.71,-52.87,261.45,5.29,100
435,Corn Island,NI,1578168623,75,12.17,-83.04,300.96,5.75,4
436,Camargo,MX,1578168623,19,27.69,-105.17,288.02,2.32,0
437,Jalu,LY,1578168437,73,29.03,21.55,283.4,4.0,0
438,Kilindoni,TZ,1578168623,80,-7.91,39.67,301.22,5.37,53
439,Vila Velha,BR,1578168458,58,-3.71,-38.6,303.15,5.7,20
440,Mount Gambier,AU,1578168623,71,-37.83,140.78,285.15,3.6,90
441,Eenhana,NA,1578168623,94,-17.48,16.34,294.15,3.1,100
442,Gornozavodsk,RU,1578168624,94,58.37,58.33,269.87,5.2,100
443,Timbuktu,ML,1578168624,18,16.77,-3.01,289.89,5.04,0
444,Dali,CN,1578168624,94,34.79,109.94,274.54,10.3,100
445,Bourail,NC,1578168624,66,-21.57,165.5,296.91,2.06,0
446,Dingle,PH,1578168517,94,11.0,122.67,295.13,4.48,4
447,Wajima,JP,1578168404,70,37.4,136.9,277.81,9.58,100
448,Aklavik,CA,1578168448,74,68.22,-135.01,243.15,3.1,40
449,Lermontovka,RU,1578168624,98,47.15,134.34,251.27,1.11,87
450,Koping,SE,1578168625,47,59.51,15.99,275.37,7.2,0
451,General Bravo,MX,1578168625,23,25.79,-99.18,294.55,2.65,0
452,Tanout,NE,1578168625,24,14.97,8.88,286.99,6.3,0
453,Marsh Harbour,BS,1578168626,73,26.54,-77.06,299.28,7.13,65
454,Coolum Beach,AU,1578168626,87,-26.53,153.09,294.82,0.94,26
455,Kuryk,KZ,1578168607,59,43.18,51.68,277.66,8.7,59
456,Linfen,CN,1578168366,88,36.09,111.52,275.78,5.99,100
457,Kurilsk,RU,1578168626,82,45.23,147.88,265.41,6.93,100
458,Chilmari,BD,1578168626,80,25.59,89.66,288.89,2.5,7
459,Riyadh,SA,1578168406,55,24.63,46.72,292.15,2.1,40
460,Siguiri,GN,1578168466,11,11.42,-9.17,293.28,2.57,51
461,Awjilah,LY,1578168627,73,29.14,21.3,283.4,4.0,0
462,Kargopol,RU,1578168627,95,61.51,38.95,272.21,3.06,99
463,Borgarnes,IS,1578168627,80,64.54,-21.92,277.15,8.2,75
464,Ruwi,OM,1578168627,60,23.6,58.55,296.15,2.1,0
465,Camabatela,AO,1578168627,99,-8.19,15.37,290.99,2.11,100
466,Sukhoy Log,RU,1578168627,92,56.9,62.03,267.64,2.72,99
467,Narsaq,GL,1578168536,86,60.91,-46.05,270.15,1.51,75
468,Olden,NO,1578168627,93,61.84,6.81,271.48,2.68,76
469,Simao,CN,1578168627,98,22.76,100.79,283.57,1.23,0
470,Burnie,AU,1578168628,70,-41.05,145.91,285.93,2.68,100
471,Gwadar,PK,1578168628,68,25.12,62.33,296.37,3.98,11
472,The Pas,CA,1578168628,85,53.82,-101.24,264.15,5.7,90
473,Tadine,NC,1578168365,70,-21.55,167.88,298.73,5.74,11
474,Las Palmas,CO,1578168351,73,9.27,-75.33,301.62,4.37,88
475,Santa Cecilia,CR,1578168628,48,9.85,-84.31,301.15,5.7,20
476,Suluq,LY,1578168628,76,31.67,20.25,285.07,3.86,7
477,Eureka,US,1578168628,87,40.8,-124.16,285.93,2.1,1
478,Keetmanshoop,NA,1578168628,25,-26.57,18.15,305.15,5.7,0
479,Roseburg,US,1578168629,81,43.22,-123.34,286.48,2.1,75
480,Purwodadi,ID,1578168633,95,-7.08,110.92,299.82,1.33,100
481,Noumea,NC,1578168633,68,-22.28,166.46,298.15,1.5,7
482,Ergani,TR,1578168633,86,38.27,39.76,278.15,4.1,90
483,Xiaoshi,CN,1578168633,91,30.59,116.63,281.24,2.49,100
484,Bulgan,MN,1578168633,81,48.81,103.53,257.1,2.63,100
485,Guiratinga,BR,1578168633,74,-16.35,-53.76,301.47,1.56,73
486,Chapais,CA,1578168396,78,49.78,-74.86,261.15,1.5,90
487,Chumikan,RU,1578168512,76,54.72,135.31,251.29,3.75,18
488,Iskateley,RU,1578168634,85,67.68,53.15,270.79,15.42,100
489,Ambon,FR,1578168634,93,47.55,-2.56,279.15,1.5,20
490,Hithadhoo,MV,1578168634,68,-0.6,73.08,301.5,1.96,99
491,Teloloapan,MX,1578168634,31,18.37,-99.87,302.04,1.79,0
492,Weihai,CN,1578168634,61,37.5,122.11,276.42,2.38,2
493,Shingu,JP,1578168634,66,33.72,135.99,280.66,6.9,0
494,Saint Paul,US,1578168634,63,44.95,-93.1,273.15,4.1,20
495,Buala,SB,1578168634,79,-8.15,159.59,301.24,3.26,87
496,Verkhnyaya Inta,RU,1578168634,83,65.99,60.32,269.92,11.03,44
497,Kenai,US,1578168635,75,60.55,-151.26,254.82,3.89,1
498,Pucallpa,PE,1578168635,42,-8.38,-74.54,307.56,1.78,100
499,Ampanihy,MG,1578168635,75,-24.69,44.75,296.68,5.91,0
500,Rey Bouba,CM,1578168635,24,8.67,14.18,293.18,0.57,0
501,Nanakuli,US,1578168635,88,21.39,-158.15,297.15,10.3,90
502,Nyagan,RU,1578168635,89,62.14,65.43,269.92,4.66,86
503,Serowe,BW,1578168635,38,-22.4,26.7,299.87,3.19,51
504,Longyan,CN,1578168635,92,25.1,117.03,286.19,1.29,95
505,Sao Domingos,BR,1578168635,95,-13.4,-46.32,295.58,2.84,100
506,Paita,PE,1578168636,100,-5.09,-81.11,290.15,6.7,90
507,San Rafael,AR,1578168636,26,-34.61,-68.33,306.22,4.84,62
508,Hovd,NO,1578168636,82,63.83,10.7,275.93,13.9,75
509,Gejiu,CN,1578168636,97,23.36,103.16,283.75,2.57,6
510,Kiruna,SE,1578168375,72,67.86,20.23,265.15,3.6,0
511,Tahe,CN,1578168636,90,52.34,124.71,253.35,1.25,0
512,Leningradskiy,RU,1578168636,62,69.38,178.42,250.37,0.48,34
513,Tommot,RU,1578168636,97,58.97,126.27,258.84,0.72,100
514,Lakatoro,VU,1578168636,74,-16.11,167.42,300.13,6.16,0
515,Vardo,US,1578168458,71,39.62,-77.74,287.15,5.7,90
516,Jasper,US,1578168637,40,33.83,-87.28,285.37,6.07,1
517,Ballina,IE,1578168637,93,54.11,-9.15,282.59,6.7,90
518,Los Llanos de Aridane,ES,1578168637,68,28.66,-17.92,292.15,4.6,75
519,Vaasa,FI,1578168637,57,63.1,21.62,273.15,9.3,0
520,Araouane,ML,1578168551,20,18.9,-3.53,288.82,4.24,35
521,Rio Claro,BR,1578168637,78,-22.41,-47.56,297.15,2.1,40
522,Weyburn,CA,1578168637,78,49.67,-103.85,274.82,1.79,100
523,Emba,CY,1578168637,67,34.81,32.42,289.15,8.7,75
524,Mackenzie,CA,1578168637,63,55.34,-123.09,270.15,4.1,1
525,Luderitz,NA,1578168511,87,-26.65,15.16,290.11,11.4,0
526,Kabinda,CD,1578168638,93,-6.14,24.49,293.71,1.54,100
527,Weinan,CN,1578168638,89,34.5,109.46,280.37,8.0,100
528,Porbandar,IN,1578168638,55,21.64,69.61,294.69,6.23,0
529,Belmonte,PT,1578168535,24,40.36,-7.35,281.48,4.47,0
530,Coihaique,CL,1578168638,41,-45.58,-72.07,289.15,4.6,40
531,Batagay,RU,1578168638,94,67.65,134.64,240.02,0.49,0
532,Brezova pod Bradlom,SK,1578168638,93,48.66,17.54,278.15,6.2,90
533,Chaoyang,CN,1578168638,72,41.58,120.44,264.8,0.88,0
534,Carauari,BR,1578168639,92,-4.88,-66.9,300.5,1.59,100
535,Nipawin,CA,1578168639,85,53.36,-104.02,269.15,7.7,20
536,Koksovyy,RU,1578168639,78,48.2,40.6,272.5,3.42,0
537,Focsani,RO,1578168639,74,45.7,27.18,274.15,2.6,75
538,Kita,JP,1578168639,65,35.76,139.74,278.15,7.7,20
539,Kuytun,RU,1578168639,96,54.34,101.51,264.69,1.56,100
540,Otukpo,NG,1578168639,23,7.19,8.13,297.17,2.08,39
541,Aginskoye,RU,1578168639,72,51.11,114.54,258.78,0.43,3
542,Hambantota,LK,1578168364,84,6.12,81.12,299.28,7.38,7
543,Nizhniy Kuranakh,RU,1578168640,96,58.84,125.49,260.01,1.29,96
544,Leshukonskoye,RU,1578168640,89,64.9,45.76,269.59,4.54,97
545,Oum Hadjer,TD,1578168640,19,13.3,19.7,292.61,6.18,0
546,Witu,KE,1578168640,83,-2.39,40.44,299.15,2.58,90
547,Denpasar,ID,1578168640,88,-8.65,115.22,301.15,7.2,75
548,Fauske,NO,1578168640,81,67.26,15.4,273.15,7.7,40
549,Trairi,BR,1578168641,68,-3.28,-39.27,299.62,1.98,97
550,Ixtapa,MX,1578168433,53,20.71,-105.21,298.15,2.6,75
551,Kelapa Sawit,MY,1578168641,94,1.68,103.53,299.15,2.1,75
552,Impfondo,CD,1578168386,35,1.62,18.06,295.96,0.56,37
553,Oriximina,BR,1578168598,59,-1.77,-55.87,304.0,1.8,100
554,Heinola,FI,1578168641,66,61.2,26.03,273.15,5.1,90
555,Oran,DZ,1578168385,76,35.7,-0.65,284.15,1.5,40
556,Charlestown,US,1578168580,100,41.38,-71.64,282.15,2.1,90
557,Khani,GE,1578168441,70,41.96,42.96,275.15,2.6,56
