,City,Country,Date,Humidity,Lat,Lng,Max Temp,Wind Speed,Cloudiness
0,Ligatne,LV,1578110175,95,57.23,25.04,275.93,2.68,97
1,Huarmey,PE,1578110176,78,-10.07,-78.15,293.78,1.03,100
2,Riachao das Neves,BR,1578110176,98,-11.75,-44.91,294.4,1.32,100
3,Hay River,CA,1578109882,75,60.82,-115.79,245.15,0.37,75
4,Bluff,AU,1578110167,35,-23.58,149.07,304.69,5.75,21
5,Svetlogorsk,RU,1578110176,92,53.14,59.15,267.15,9.0,90
6,Sobolevo,RU,1578110177,95,54.43,31.9,272.19,5.17,85
7,Cape Town,ZA,1578109927,93,-33.93,18.42,292.04,4.1,19
8,Deputatskiy,RU,1578110177,96,69.3,139.9,244.8,0.36,0
9,Qaanaaq,GL,1578110164,97,77.48,-69.36,232.95,2.49,100
10,Dikson,RU,1578110177,94,73.51,80.55,250.12,5.9,6
11,Chernyshevskiy,RU,1578110177,98,63.01,112.47,254.14,0.84,100
12,Punta Arenas,CL,1578110161,61,-53.16,-70.91,283.15,4.6,97
13,Rikitea,PF,1578110165,78,-23.12,-134.97,299.34,5.45,94
14,Bathsheba,BB,1578110178,78,13.22,-59.52,298.15,3.1,20
15,Sabratah,LY,1578110178,63,32.79,12.49,287.12,7.14,0
16,Kahului,US,1578110011,83,20.89,-156.47,297.15,8.7,40
17,Mataura,NZ,1578109700,66,-46.19,168.86,285.37,7.6,35
18,Ushuaia,AR,1578110161,61,-54.81,-68.31,282.15,6.7,40
19,Oranjemund,ZA,1578110178,94,-28.55,16.43,287.06,2.76,11
20,Georgetown,GY,1578110179,94,6.8,-58.16,296.15,2.1,100
21,Raudeberg,NO,1578110179,64,61.99,5.14,277.15,16.5,72
22,Kaitangata,NZ,1578110179,72,-46.28,169.85,283.29,15.44,92
23,Arraial do Cabo,BR,1578110179,90,-22.97,-42.02,297.36,7.57,60
24,Antalya,TR,1578110179,73,36.9,30.69,281.15,4.6,0
25,Calatayud,ES,1578110179,93,41.35,-1.64,278.15,1.0,0
26,Bilibino,RU,1578110025,55,68.06,166.44,251.91,0.6,0
27,East London,ZA,1578110180,100,-33.02,27.91,296.15,1.5,90
28,Broome,GB,1578110143,86,52.47,1.45,277.59,6.2,66
29,Dingle,PH,1578110180,83,11.0,122.67,299.48,5.86,47
30,Rorvik,NO,1578110180,75,64.86,11.24,276.48,1.79,100
31,Mar del Plata,AR,1578110177,59,-46.43,-67.52,290.01,5.74,13
32,Leningradskiy,RU,1578110180,74,69.38,178.42,251.7,4.63,85
33,Geraldton,CA,1578110180,85,49.72,-86.95,263.15,2.1,90
34,Saint-Philippe,CA,1578110181,93,45.36,-73.48,277.15,2.35,90
35,Ahipara,NZ,1578110181,62,-35.17,173.16,295.93,1.34,47
36,Phek,IN,1578110181,85,25.7,94.46,286.09,1.03,6
37,Saint Anthony,US,1578110135,85,43.97,-111.68,271.15,0.93,1
38,Souillac,FR,1578110181,93,45.6,-0.6,282.15,3.1,90
39,Nikolskoye,RU,1578110181,80,59.7,30.79,274.26,4.0,100
40,Burnie,AU,1578110181,43,-41.05,145.91,293.71,11.18,94
41,Sitka,US,1578110166,59,37.17,-99.65,275.93,2.82,0
42,Libenge,CD,1578110182,31,3.65,18.64,291.52,1.51,100
43,Avarua,CK,1578109868,69,-21.21,-159.78,300.15,6.2,8
44,Batticaloa,LK,1578110182,79,7.71,81.69,299.87,0.89,0
45,Fairbanks,US,1578109933,74,64.84,-147.72,250.37,1.85,1
46,Albany,US,1578110009,86,42.65,-73.75,279.15,0.73,90
47,Winnemucca,US,1578110015,60,40.97,-117.74,277.15,5.7,1
48,Comodoro Rivadavia,AR,1578110182,19,-45.87,-67.48,294.15,9.3,26
49,Grindavik,IS,1578110183,58,63.84,-22.43,271.15,8.7,100
50,Port Alfred,ZA,1578110183,98,-33.59,26.89,294.26,4.25,100
51,Hilo,US,1578110183,57,19.71,-155.08,300.15,2.6,1
52,Mecca,SA,1578109889,68,21.43,39.83,293.02,2.98,86
53,Jalu,LY,1578110183,88,29.03,21.55,283.06,4.0,48
54,Dhandhuka,IN,1578110183,59,22.38,71.98,289.57,3.06,25
55,Yashkul,RU,1578110122,83,46.17,45.34,271.54,2.5,0
56,Busselton,AU,1578110183,15,-33.64,115.35,298.15,1.07,26
57,Yulara,AU,1578109585,45,-25.24,130.99,303.15,6.2,40
58,Buckeye,US,1578110058,75,33.37,-112.58,284.82,3.1,1
59,Husavik,CA,1578110184,92,50.56,-96.99,270.93,2.13,100
60,Katsuura,JP,1578110184,37,33.93,134.5,285.15,5.7,40
61,Butaritari,KI,1578110184,74,3.07,172.79,302.04,3.58,100
62,Sinnamary,GF,1578110017,80,5.38,-52.96,299.8,6.21,100
63,Kapaa,US,1578110027,73,22.08,-159.32,299.15,8.2,75
64,Hermanus,ZA,1578110185,88,-34.42,19.24,290.93,1.34,0
65,Kodiak,US,1578110004,64,39.95,-94.76,274.15,6.7,1
66,Artyom,RU,1578110185,38,43.36,132.19,268.15,6.0,0
67,Cidreira,BR,1578110185,78,-30.17,-50.22,295.96,11.18,9
68,Iqaluit,CA,1578110185,84,63.75,-68.52,260.15,1.5,90
69,Severo-Kurilsk,RU,1578110185,81,50.68,156.12,269.34,7.41,100
70,Machilipatnam,IN,1578110185,94,16.18,81.14,298.15,2.1,75
71,Puerto Ayora,EC,1578110186,83,-0.74,-90.35,297.04,0.89,12
72,Provideniya,RU,1578110186,72,64.42,-173.23,247.45,4.08,0
73,At-Bashi,KG,1578110186,91,41.17,75.81,253.82,0.94,100
74,Saldanha,PT,1578110186,94,41.42,-6.55,276.57,1.83,3
75,Zhigansk,RU,1578110186,90,66.77,123.37,243.44,6.85,100
76,Tuktoyaktuk,CA,1578110165,74,69.44,-133.03,243.15,7.2,40
77,Saint George,GR,1578110070,86,39.45,22.34,275.37,0.84,0
78,Brae,GB,1578110049,69,60.4,-1.35,276.15,9.3,80
79,Thompson,CA,1578110187,84,55.74,-97.86,257.15,2.6,20
80,Baykit,RU,1578110187,93,61.68,96.39,256.62,1.31,68
81,Airai,TL,1578110187,92,-8.93,125.41,293.88,2.83,100
82,Necochea,AR,1578110131,72,-38.55,-58.74,291.5,6.12,0
83,Kupang,ID,1578110102,83,-10.16,123.6,301.15,1.0,90
84,Mahebourg,MU,1578110019,94,-20.41,57.7,298.15,1.0,75
85,Nemuro,JP,1578110188,41,43.32,145.57,269.15,4.6,20
86,Namibe,AO,1578110188,96,-15.19,12.15,295.33,2.92,100
87,Vaini,IN,1578110188,82,15.34,74.49,292.15,0.65,20
88,Vrangel,RU,1578110188,59,42.73,133.08,267.81,6.79,96
89,Cicero Dantas,BR,1578110188,91,-10.6,-38.38,295.88,1.73,100
90,Barrow,AR,1578110165,65,-38.31,-60.23,294.12,5.67,0
91,Jamestown,AU,1578110155,42,-33.21,138.6,298.57,8.82,0
92,Nuevo Progreso,US,1578110189,41,26.05,-97.95,291.15,4.6,1
93,Fort Nelson,CA,1578110189,83,58.81,-122.69,252.15,2.46,90
94,Plastun,RU,1578110189,51,44.76,136.29,261.17,4.18,0
95,Severo-Yeniseyskiy,RU,1578110189,94,60.37,93.04,257.71,1.99,81
96,Lorengau,PG,1578110189,72,-2.02,147.27,302.43,2.67,94
97,Padang,ID,1578110139,64,-0.92,100.36,300.15,1.59,41
98,Yellowknife,CA,1578110114,83,62.45,-114.38,250.37,3.1,5
99,Black River,JM,1578110190,78,18.03,-77.85,300.15,0.5,75
100,Santiago del Estero,AR,1578110035,49,-27.8,-64.26,296.31,2.01,0
101,Buenos Aires,AR,1578109966,78,-34.61,-58.44,297.59,5.7,40
102,Vila Franca do Campo,PT,1578110190,82,37.72,-25.43,290.15,5.1,75
103,Tiarei,PF,1578110150,70,-17.53,-149.33,302.15,2.6,75
104,Fortuna,US,1578110191,50,40.6,-124.16,287.15,9.8,1
105,Cabo San Lucas,MX,1578110118,82,22.89,-109.91,292.04,4.1,5
106,Pudozh,RU,1578110191,91,61.81,36.54,273.55,3.42,100
107,Port Hedland,AU,1578110191,52,-20.31,118.58,307.15,5.7,90
108,Newport,GB,1578110191,87,51.59,-3.0,280.93,4.1,90
109,Tilichiki,RU,1578110191,76,60.47,166.1,254.44,3.31,0
110,Launceston,AU,1578110191,46,-41.43,147.14,296.48,6.2,40
111,Bubaque,GW,1578110142,56,11.28,-15.83,298.63,4.43,93
112,Port Elizabeth,US,1578110192,93,39.31,-74.98,283.15,2.1,90
113,Shibetsu,JP,1578110192,85,44.15,142.46,265.15,3.1,75
114,Victoria,BN,1578110124,74,5.28,115.24,303.15,3.6,75
115,Ponta do Sol,BR,1578110192,96,-20.63,-46.0,292.88,1.68,100
116,Maun,BW,1578110192,72,-19.99,23.42,296.11,0.78,100
117,El Tigre,VE,1578110193,75,8.89,-64.25,296.77,4.75,0
118,Bambous Virieux,MU,1578109983,94,-20.34,57.76,298.15,1.0,75
119,Bredasdorp,ZA,1578110165,77,-34.53,20.04,292.15,0.62,8
120,Kushima,JP,1578110193,28,31.5,131.29,287.15,4.1,0
121,Port Blair,IN,1578110193,77,11.67,92.75,300.69,5.75,0
122,Toba,JP,1578110193,53,34.47,136.83,284.15,6.2,75
123,Praia da Vitoria,PT,1578110193,82,38.73,-27.07,286.15,7.87,40
124,Richards Bay,ZA,1578110194,84,-28.77,32.06,298.44,8.85,2
125,Rio Gallegos,AR,1578110194,87,-51.62,-69.22,280.15,3.6,3
126,Porangatu,BR,1578110142,97,-13.44,-49.14,295.59,2.41,100
127,Tabas,IR,1578110194,60,33.6,56.92,283.15,2.1,100
128,Codrington,AU,1578110194,34,-28.95,153.24,309.15,5.1,0
129,Pangnirtung,CA,1578110194,97,66.15,-65.72,258.42,1.36,100
130,Jabinyanah,TN,1578110194,93,35.03,10.91,279.15,1.5,0
131,Atuona,PF,1578110194,73,-9.8,-139.03,300.06,7.03,0
132,Hobart,AU,1578110104,18,-42.88,147.33,296.15,9.8,40
133,Rio Grande,BR,1578110195,72,-32.03,-52.1,294.82,1.34,2
134,Ampanihy,MG,1578110195,88,-24.69,44.75,295.36,3.55,63
135,Ostrovnoy,RU,1578110195,84,68.05,39.51,268.1,12.25,100
136,Uddevalla,SE,1578110195,51,58.35,11.94,277.59,6.2,0
137,Sorland,NO,1578110195,83,67.67,12.69,273.83,20.5,100
138,Raton,US,1578110195,67,36.9,-104.44,271.48,3.6,1
139,Pangody,RU,1578110195,95,65.85,74.49,257.89,5.35,93
140,Santa Maria,BR,1578110196,88,-16.02,-48.01,295.15,4.1,75
141,Ilulissat,GL,1578110163,61,69.22,-51.1,265.15,6.2,100
142,Viedma,AR,1578110196,42,-40.81,-62.99,298.76,8.32,3
143,Karratha,AU,1578110196,80,-20.74,116.85,302.08,7.35,0
144,Remontnoye,RU,1578110196,92,46.56,43.66,269.15,4.0,0
145,Sao Joao da Barra,BR,1578110196,91,-21.64,-41.05,296.82,3.48,100
146,Nanortalik,GL,1578110197,63,60.14,-45.24,271.18,2.62,100
147,Chokurdakh,RU,1578110197,97,70.62,147.9,244.94,2.15,46
148,Naron,ES,1578110197,100,43.52,-8.15,282.59,1.0,90
149,Nishiwaki,JP,1578110155,46,35.01,135.0,285.93,5.1,20
150,Zhuanghe,CN,1578110197,48,39.7,122.97,273.67,2.03,0
151,Trabzon,TR,1578110197,75,41.01,39.72,280.15,4.6,75
152,Strezhevoy,RU,1578110197,85,60.73,77.6,262.15,6.0,90
153,Coquimbo,CL,1578110021,87,-29.95,-71.34,288.15,3.1,90
154,Itoman,JP,1578110151,56,26.12,127.67,295.15,3.6,20
155,Luganville,VU,1578110145,62,-15.51,167.18,303.15,4.6,40
156,Mahajanga,MG,1578110198,100,-15.72,46.32,296.15,1.5,20
157,Hasaki,JP,1578110198,39,35.73,140.83,284.26,4.6,40
158,Aksha,RU,1578110198,81,50.28,113.29,260.8,1.6,1
159,Dunedin,NZ,1578110155,45,-45.87,170.5,288.15,11.18,73
160,Kununurra,AU,1578110198,70,-15.77,128.74,303.15,2.1,44
161,Bagotville,AU,1578110199,58,-28.98,153.42,309.15,9.8,0
162,Singkang,MY,1578110199,66,2.1,102.8,303.15,4.1,20
163,Udachnyy,RU,1578110199,75,66.42,112.4,245.15,2.0,65
164,Samalkot,IN,1578110199,83,17.05,82.18,299.15,3.6,40
165,Khatanga,RU,1578109873,98,71.98,102.47,253.71,2.26,100
166,Touros,BR,1578110199,78,-5.2,-35.46,299.15,3.1,40
167,Burns Lake,CA,1578110199,97,54.23,-125.76,268.17,0.14,100
168,Huicungo,PE,1578110200,97,-7.28,-76.8,291.11,1.48,79
169,Brejo,BR,1578110200,93,-3.68,-42.75,297.46,2.13,100
170,Tiksi,RU,1578110123,85,71.64,128.87,245.62,3.76,100
171,Manadhoo,MV,1578110200,76,5.77,73.38,301.24,5.45,55
172,Srednekolymsk,RU,1578110200,71,67.46,153.71,255.81,1.15,43
173,Bayir,TR,1578110200,86,37.27,28.22,274.15,2.1,0
174,Longyearbyen,NO,1578110201,60,78.22,15.63,259.15,7.2,75
175,Vao,EE,1578110115,76,59.1,26.19,274.2,5.68,0
176,Flinders,AU,1578110201,26,-34.58,150.85,309.82,3.6,3
177,Valday,RU,1578110201,96,57.98,33.25,275.21,6.13,100
178,Great Falls,US,1578110201,42,47.5,-111.29,282.59,10.3,90
179,Matara,BI,1578110201,83,-3.48,29.48,296.15,1.0,20
180,Mount Isa,AU,1578110118,22,-20.73,139.49,312.15,5.7,40
181,Carlyle,CA,1578110202,92,49.63,-102.27,262.04,4.1,40
182,Torbay,CA,1578110202,86,47.66,-52.73,272.59,9.8,40
183,Syamzha,RU,1578110202,90,60.02,41.06,274.05,5.57,100
184,Zhezkazgan,KZ,1578110041,100,47.8,67.71,269.15,3.0,90
185,Douglas,US,1578110203,68,58.28,-134.39,271.15,2.1,90
186,Guerrero Negro,MX,1578110203,52,27.97,-114.04,289.31,1.37,0
187,Klaksvik,FO,1578110203,69,62.23,-6.59,275.15,4.1,65
188,Trinidad,BO,1578110157,94,-14.83,-64.9,297.0,1.24,100
189,Nagorsk,RU,1578110203,92,59.32,50.8,271.93,4.8,100
190,Norman Wells,CA,1578110166,73,65.28,-126.83,238.15,2.1,40
191,Grand Gaube,MU,1578110040,94,-20.01,57.66,298.15,1.0,75
192,Ukwa,NG,1578110204,26,5.47,8.01,295.52,3.16,87
193,Batemans Bay,AU,1578110204,15,-35.71,150.18,315.93,4.02,0
194,Alice Springs,AU,1578110064,19,-23.7,133.88,310.15,3.1,71
195,San Cristobal,HN,1578110204,85,14.68,-86.92,290.85,2.2,10
196,Hualmay,PE,1578110204,84,-11.1,-77.61,292.83,1.99,100
197,Khilok,RU,1578110204,83,51.36,110.46,260.4,1.02,0
198,Mount Gambier,AU,1578110205,67,-37.83,140.78,289.15,8.2,75
199,Bam,IR,1578110205,62,29.11,58.36,284.39,0.66,2
200,Nabire,ID,1578110205,65,-3.36,135.5,302.98,0.63,98
201,Parabel,RU,1578110099,92,58.71,81.5,260.1,4.44,68
202,Lebu,ET,1578110205,71,8.96,38.73,285.15,3.1,20
203,Mosquera,CO,1578110174,93,4.71,-74.23,284.15,1.5,40
204,Bansi,IN,1578110205,79,27.18,82.93,288.07,1.13,45
205,Manjacaze,MZ,1578110205,93,-24.71,33.88,295.15,0.64,99
206,Cabedelo,BR,1578110039,83,-6.97,-34.84,299.15,1.5,20
207,Saint-Augustin,CA,1578110206,97,45.63,-73.98,277.15,1.0,90
208,Vostok,RU,1578110132,83,46.45,135.83,255.58,1.76,0
209,Bethel,US,1578110206,76,60.79,-161.76,250.15,4.1,1
210,Quatre Cocos,MU,1578110206,94,-20.21,57.76,298.15,1.0,75
211,Karasjok,NO,1578110206,80,69.47,25.52,273.15,13.4,100
212,Consett,GB,1578110207,87,54.85,-1.83,281.15,9.3,40
213,San Patricio,PY,1578109881,64,-26.98,-56.83,295.87,2.11,0
214,Castro,CL,1578110207,71,-42.48,-73.76,283.15,4.1,4
215,Balkhash,KZ,1578110207,92,46.84,74.98,265.15,2.0,90
216,Tiznit,MA,1578110207,37,29.7,-9.73,283.26,1.15,9
217,Biak,ID,1578110207,70,-0.91,122.88,303.06,3.28,100
218,Margate,AU,1578110207,18,-43.03,147.26,296.15,9.8,40
219,Harlingen,NL,1578110207,87,53.18,5.41,280.37,7.2,90
220,Xining,CN,1578110208,34,36.62,101.77,271.52,2.18,100
221,Tyrma,RU,1578110208,84,50.04,132.17,249.19,1.4,0
222,Hamilton,CA,1578109981,80,43.26,-79.87,278.71,3.1,90
223,Vardo,US,1578110208,93,39.62,-77.74,282.59,2.6,90
224,Kruisfontein,ZA,1578110208,93,-34.0,24.73,293.01,1.58,98
225,Thaba Nchu,ZA,1578110208,77,-29.2,26.83,289.15,1.5,35
226,Lagoa,PT,1578110208,81,37.14,-8.45,283.71,3.6,0
227,Tibati,CM,1578110209,27,6.47,12.63,290.19,2.72,0
228,Yumen,CN,1578110209,56,40.29,97.04,267.18,0.72,0
229,Nazas,MX,1578110209,47,25.22,-104.11,279.39,1.69,0
230,Havoysund,NO,1578110168,70,71.0,24.66,273.15,7.2,75
231,Saint Joseph,US,1578110209,64,39.77,-94.85,275.15,6.7,1
232,Carnarvon,ZA,1578110209,79,-30.97,22.13,289.62,3.83,0
233,Waldoboro,US,1578110210,92,44.1,-69.38,277.04,2.1,1
234,Tolaga Bay,NZ,1578110210,69,-38.37,178.3,289.08,7.65,99
235,Sola,TZ,1578110113,77,-3.17,33.8,290.89,5.17,74
236,Liverpool,GB,1578110210,75,53.41,-2.98,281.15,7.2,75
237,Braganca,BR,1578110210,97,-1.05,-46.77,296.44,0.17,96
238,Upernavik,GL,1578110210,97,72.79,-56.15,247.92,7.98,100
239,Itarema,BR,1578110210,84,-2.92,-39.92,299.52,2.35,100
240,Pleshanovo,RU,1578110211,92,57.46,28.17,274.15,4.0,98
241,Shache,CN,1578110211,60,38.42,77.24,268.92,1.46,100
242,Santa Cecilia,CR,1578110211,94,9.85,-84.31,294.15,1.5,100
243,Suntar,RU,1578110211,97,62.16,117.65,257.01,1.48,100
244,Nouadhibou,MR,1578110211,33,20.93,-17.03,290.15,8.2,100
245,Muncar,ID,1578110211,74,-8.43,114.34,302.56,7.77,0
246,Talnakh,RU,1578110211,77,69.49,88.39,254.15,8.0,100
247,Saskylakh,RU,1578110162,97,71.97,114.09,245.82,2.71,98
248,Kavaratti,IN,1578110212,70,10.57,72.64,303.15,3.1,20
249,Portland,US,1578110212,74,43.66,-70.25,277.59,5.78,90
250,Carutapera,BR,1578110149,77,-1.2,-46.02,300.94,3.75,6
251,Tuy Hoa,VN,1578110055,76,13.08,109.3,297.54,8.81,100
252,Kanel,SN,1578110213,14,15.49,-13.18,293.15,1.0,67
253,Bonthe,SL,1578110213,72,7.53,-12.5,297.15,1.33,1
254,Semnan,IR,1578110213,63,35.58,53.39,276.28,0.92,71
255,Havelock,US,1578110213,93,34.88,-76.9,296.15,4.6,90
256,Jinchang,CN,1578110213,33,38.52,102.19,271.3,3.18,8
257,Hobyo,SO,1578110213,82,5.35,48.53,296.99,4.97,73
258,Pevek,RU,1578110050,61,69.7,170.27,254.4,2.15,0
259,Jumla,NP,1578110214,68,29.28,82.18,268.41,1.39,12
260,Andra,RU,1578110214,95,62.52,65.89,265.6,3.9,100
261,Jacksonville Beach,US,1578110192,73,30.29,-81.39,297.15,4.6,20
262,Fujin,CN,1578110214,82,47.24,132.03,257.91,5.54,0
263,Pokhara,NP,1578110214,69,28.21,83.99,284.23,0.88,54
264,Jijiga,ET,1578110214,76,9.35,42.8,286.89,4.13,6
265,Dinguiraye,GN,1578110214,22,11.29,-10.71,287.12,0.6,14
266,Cartagena,ES,1578110215,100,37.63,-1.0,284.26,3.1,90
267,Kieta,PG,1578110215,63,-6.22,155.63,302.26,1.29,100
268,Sharkan,RU,1578110215,91,57.3,53.87,272.04,2.24,100
269,Marawi,PH,1578110215,76,8.0,124.29,300.93,2.68,23
270,Surt,LY,1578110215,73,31.21,16.59,283.21,6.44,7
271,Mandera,ET,1578110215,62,3.94,41.86,299.3,3.98,40
272,Durban,CA,1578110216,93,51.93,-101.44,260.15,2.36,76
273,Tuatapere,NZ,1578110216,68,-46.13,167.69,284.82,7.15,53
274,Rabo de Peixe,PT,1578110216,82,37.8,-25.58,290.15,5.1,75
275,Northam,AU,1578110216,19,-31.65,116.67,295.15,3.6,0
276,New Norfolk,AU,1578110040,18,-42.78,147.06,296.15,9.8,40
277,Kabinda,CD,1578110217,97,-6.14,24.49,292.16,1.45,100
278,El Alto,BO,1578110217,93,-16.5,-68.19,281.15,3.1,75
279,Ghanzi,BW,1578110217,66,-21.7,21.65,295.82,2.38,1
280,Camacha,PT,1578110217,72,33.08,-16.33,290.15,2.6,20
281,Yuci,CN,1578110217,44,37.68,112.73,276.15,1.0,92
282,Weiser,US,1578110217,85,44.25,-116.97,274.82,1.5,1
283,Koch Bihar,IN,1578110217,74,26.32,89.46,290.3,0.25,70
284,La Ronge,CA,1578110217,85,55.1,-105.3,263.15,1.55,90
285,Ancud,CL,1578110218,71,-41.87,-73.83,283.15,4.1,0
286,Narsaq,GL,1578109880,31,60.91,-46.05,274.15,18.5,100
287,Kungurtug,RU,1578110218,82,50.6,97.53,257.1,0.27,0
288,Hadejia,NG,1578110218,30,12.45,10.04,285.12,4.95,100
289,Isangel,VU,1578110218,69,-19.55,169.27,299.15,5.7,0
290,Sungairaya,ID,1578110218,74,0.7,108.9,302.75,1.27,75
291,Lavrentiya,RU,1578110218,93,65.58,-170.99,247.09,4.3,88
292,Moose Factory,CA,1578110219,92,51.26,-80.61,262.15,3.6,90
293,Peniche,PT,1578110219,100,39.36,-9.38,285.37,1.5,40
294,Shimoda,JP,1578110219,62,34.7,138.93,285.93,4.1,75
295,Faya,SA,1578110011,82,18.39,42.45,287.15,3.6,0
296,Cherskiy,RU,1578110092,64,68.75,161.3,255.91,4.61,0
297,Muisne,EC,1578110219,88,0.61,-80.02,297.39,2.86,100
298,Bereda,ES,1578110076,100,43.27,-7.54,282.59,1.0,90
299,Sao Paulo de Olivenca,BR,1578109944,95,-3.38,-68.87,295.61,0.95,60
300,Vallenar,CL,1578110220,82,-28.58,-70.76,286.23,0.86,0
301,Aksu,KZ,1578110148,92,52.04,76.93,266.15,4.0,75
302,Guaruja,BR,1578109925,82,-23.99,-46.26,292.15,3.6,75
303,Batagay-Alyta,RU,1578110220,99,67.8,130.41,241.25,2.01,0
304,Lugo,ES,1578110220,100,43.01,-7.56,282.59,0.45,45
305,Gabu,CN,1578110220,72,34.78,103.0,270.09,2.28,100
306,Aliwal North,ZA,1578110151,58,-30.69,26.71,292.08,4.46,0
307,Yar-Sale,RU,1578110048,97,66.83,70.83,257.88,4.74,86
308,Melbu,NO,1578110221,93,68.5,14.83,273.15,2.68,100
309,Antigonish,CA,1578110221,91,45.62,-61.99,275.93,1.0,1
310,Linares,CL,1578110221,46,-35.85,-71.6,291.14,1.05,0
311,Vila Velha,BR,1578110221,78,-3.71,-38.6,303.15,2.1,40
312,Mtwara,TZ,1578110221,94,-10.28,40.18,298.15,1.29,20
313,Kochevo,BG,1578110221,47,42.1,24.92,276.15,2.1,0
314,Yeppoon,AU,1578110222,31,-23.13,150.74,305.15,5.7,3
315,Westport,US,1578110222,87,41.14,-73.36,282.15,2.54,90
316,Matamoros,US,1578110222,41,25.87,-97.51,290.15,4.6,1
317,Beringovskiy,RU,1578110222,76,63.05,179.32,250.52,7.74,0
318,Khanpur,PK,1578110222,35,28.65,70.66,287.46,3.45,0
319,Maceio,BR,1578110127,94,-9.67,-35.74,297.15,2.1,89
320,Cairo,EG,1578109502,81,30.05,31.24,282.15,7.7,75
321,Betare Oya,CM,1578110223,34,5.6,14.08,288.8,1.38,19
322,Uige,AO,1578110223,98,-7.61,15.06,292.2,0.93,100
323,Samarai,PG,1578110223,71,-10.62,150.67,302.65,2.23,89
324,Tual,ID,1578110223,78,-5.67,132.75,301.35,7.51,100
325,Ylojarvi,FI,1578110223,73,61.56,23.6,273.71,6.2,59
326,Goderich,CA,1578110223,76,43.74,-81.71,275.37,0.45,49
327,Havre-Saint-Pierre,CA,1578110143,92,50.23,-63.6,264.15,2.1,90
328,Ulaangom,MN,1578110224,87,49.98,92.07,247.75,0.61,0
329,Te Anau,NZ,1578109995,56,-45.41,167.72,285.45,4.05,96
330,Igarka,RU,1578110224,94,67.47,86.57,252.8,8.62,100
331,Nalut,LY,1578110224,49,31.86,10.98,279.49,2.99,0
332,Lai,CN,1578110224,74,27.82,91.75,260.8,3.42,100
333,Clarence Town,AU,1578110224,12,-32.59,151.78,319.26,6.7,0
334,Buraydah,SA,1578110224,71,26.33,43.97,286.15,2.6,75
335,Leninskoye,RU,1578110225,85,54.82,82.85,263.15,4.0,75
336,Japura,ID,1578110225,88,-0.42,102.29,299.82,1.88,55
337,Makat,KZ,1578110225,88,47.65,53.35,269.35,3.65,0
338,Genhe,CN,1578110225,87,50.78,121.52,253.72,1.64,0
339,Keti Bandar,PK,1578110226,61,24.14,67.45,290.48,1.95,34
340,Akureyri,IS,1578110226,85,65.68,-18.09,266.15,5.1,75
341,Shelburne,CA,1578110226,92,44.08,-80.2,276.15,0.11,90
342,Troitskoye,RU,1578110145,95,52.98,84.68,265.9,2.84,100
343,Saint-Francois,FR,1578110226,87,46.42,3.91,281.48,2.1,90
344,Oltu,TR,1578110227,80,40.55,42.0,267.11,1.85,83
345,Upata,VE,1578110227,86,8.02,-62.41,293.3,1.86,0
346,Herne Bay,GB,1578110227,86,51.37,1.13,278.71,4.6,100
347,Puerto Escondido,MX,1578110227,74,15.86,-97.07,300.15,1.36,40
348,Qena,EG,1578110227,70,26.16,32.72,282.15,2.28,92
349,Kavieng,PG,1578110163,68,-2.57,150.8,302.61,1.88,100
350,Vuktyl,RU,1578110227,98,63.86,57.31,273.61,5.63,100
351,Kargasok,RU,1578110228,88,59.06,80.87,260.63,6.43,62
352,Umm Lajj,SA,1578110228,53,25.02,37.27,285.96,5.54,0
353,The Valley,AI,1578110228,74,18.22,-63.06,299.26,3.6,20
354,Tazovskiy,RU,1578110155,94,67.47,78.7,257.5,4.95,98
355,Vestmannaeyjar,IS,1578110228,71,63.44,-20.27,274.2,16.68,100
356,Sechura,PE,1578110228,86,-5.56,-80.82,295.17,4.53,69
357,Arroio Grande,BR,1578110228,96,-32.24,-53.09,289.42,2.95,0
358,Khandyga,RU,1578110229,94,62.65,135.58,239.63,0.35,0
359,Zhumadian,CN,1578110229,55,33.01,114.02,282.45,1.77,0
360,Ojinaga,US,1578110229,39,29.56,-104.41,279.15,3.6,1
361,Nioro,GM,1578110229,13,13.79,-15.05,293.34,5.26,48
362,Constitucion,MX,1578110054,60,23.99,-104.67,279.26,2.1,5
363,Mabini,PH,1578110229,66,7.31,125.85,304.15,4.1,40
364,Zheleznodorozhnyy,RU,1578110230,86,55.75,38.0,272.15,5.0,75
365,Mehamn,NO,1578110230,83,71.03,27.85,272.75,6.66,85
366,Vegreville,CA,1578110230,78,53.5,-112.05,267.04,7.15,99
367,San Alfonso,CL,1578110230,60,-33.73,-70.32,293.15,4.6,0
368,Mazurivka,UA,1578110230,92,49.27,24.21,275.15,3.35,75
369,Ribeira Grande,PT,1578110230,92,38.52,-28.7,289.27,6.64,87
370,Praxedis Guerrero,MX,1578110230,44,31.37,-106.02,280.37,3.11,1
371,Takoradi,GH,1578110230,62,4.89,-1.75,297.27,3.21,56
372,Lewiston,US,1578110231,90,44.1,-70.21,277.04,2.1,1
373,Valparaiso,US,1578110231,86,41.47,-87.06,275.93,1.5,90
374,Mitsamiouli,KM,1578110231,83,-11.38,43.28,299.15,2.6,20
375,Saraland,US,1578110164,100,30.82,-88.07,289.15,3.1,90
376,Llangefni,GB,1578110231,81,53.26,-4.31,281.15,8.7,46
377,Soto la Marina,MX,1578110231,43,23.77,-98.21,289.33,3.44,0
378,Abu Samrah,SY,1578110231,82,35.3,37.18,280.01,3.51,86
379,Prattville,US,1578110089,100,32.46,-86.46,289.26,1.09,90
380,Maltahohe,NA,1578110232,28,-24.83,16.98,294.43,3.0,0
381,Orocue,CO,1578110232,68,4.79,-71.34,298.15,2.53,45
382,Muroto,JP,1578110232,37,33.37,134.14,286.15,3.1,40
383,Chuy,UY,1578110232,82,-33.69,-53.46,291.64,3.56,0
384,Egvekinot,RU,1578110232,71,66.32,-179.17,248.61,5.11,0
385,Hithadhoo,MV,1578110233,68,-0.6,73.08,301.37,0.67,0
386,Iskateley,RU,1578110233,98,67.68,53.15,274.29,8.95,100
387,Bharatpur,IN,1578110233,85,27.22,77.5,286.2,0.83,0
388,Chabahar,IR,1578110233,80,25.29,60.65,292.33,1.14,0
389,Abeche,TD,1578110233,31,13.83,20.83,287.94,6.75,0
390,Porto Seguro,BR,1578110233,88,-16.44,-39.06,298.15,3.6,20
391,Port-Gentil,GA,1578110234,80,-0.72,8.78,300.78,5.86,100
392,Sarangani,PH,1578110234,74,5.4,125.46,300.73,10.1,1
393,Ede,NL,1578109962,93,52.05,5.67,279.26,3.6,90
394,Xingcheng,CN,1578110234,40,40.62,120.71,273.78,1.41,0
395,Suleja,NG,1578110234,28,9.18,7.18,292.08,1.98,69
396,Labuhan,ID,1578110234,61,-2.54,115.51,303.58,1.64,60
397,Kearney,US,1578110234,79,40.7,-99.08,272.15,2.6,1
398,Anori,BR,1578110235,81,-3.74,-61.66,298.19,1.21,100
399,Kadoshkino,RU,1578110235,91,54.03,44.42,272.07,7.31,100
400,Yima,CN,1578110235,42,34.75,111.87,281.28,0.77,89
401,Monzon,IT,1578110235,42,46.45,11.69,275.93,4.6,5
402,Hays,US,1578110235,69,38.88,-99.33,276.15,4.6,90
403,Atasu,KZ,1578110065,92,48.68,71.64,264.66,1.74,83
404,Bani,YE,1578110235,81,16.02,42.93,298.18,1.29,0
405,Namatanai,PG,1578110236,70,-3.66,152.44,302.89,3.34,36
406,Ngunguru,NZ,1578110236,48,-35.62,174.5,295.93,9.39,100
407,Road Town,VG,1578110236,74,18.42,-64.62,299.26,5.7,40
408,Broken Hill,AU,1578110236,23,-31.97,141.45,307.15,9.8,0
409,Saint-Marc-des-Carrieres,CA,1578110236,100,46.68,-72.05,275.37,5.7,75
410,el Prat de Llobregat,ES,1578110236,75,41.32,2.1,282.59,6.7,0
411,San Andres,PH,1578110051,71,13.32,122.68,300.13,5.73,30
412,Morden,CA,1578110237,100,49.19,-98.1,268.15,4.43,1
413,Kiunga,PG,1578110237,87,-6.12,141.3,299.05,0.68,100
414,Ulaanbaatar,MN,1578110237,77,47.92,106.92,255.15,1.95,0
415,Dicabisagan,PH,1578110237,84,17.08,122.42,297.41,3.99,59
416,Ha Tinh,VN,1578110237,81,18.33,105.9,295.92,1.25,58
417,Dodge City,US,1578110237,64,37.75,-100.02,276.48,3.6,90
418,Rotifunk,SL,1578110238,94,8.23,-12.68,293.74,1.0,70
419,Kaka,TM,1578110238,80,37.35,59.62,278.27,1.88,67
420,Kiama,AU,1578110238,26,-34.67,150.86,309.15,3.6,3
421,Esperance,AU,1578110220,42,-33.86,121.89,293.15,4.6,40
422,Matata,NZ,1578110238,38,-37.89,176.76,297.59,3.58,100
423,Pouembout,NC,1578110238,54,-21.12,164.9,300.26,2.08,75
424,Mindelo,PT,1578110238,100,41.31,-8.72,285.37,1.5,75
425,Yuli,CN,1578110238,90,24.82,106.77,287.26,1.64,100
426,Nagua,DO,1578110239,84,19.37,-69.85,296.11,2.14,70
427,Homer,US,1578110182,67,59.64,-151.54,266.15,3.1,90
428,Jiexiu,CN,1578110239,53,37.02,111.92,275.47,1.95,100
429,Sann,PK,1578110239,87,26.04,68.14,280.15,2.1,3
430,Maniitsoq,GL,1578110239,51,65.42,-52.9,268.89,3.99,100
431,Awbari,LY,1578110239,82,26.59,12.77,278.0,1.31,0
432,Madaoua,NE,1578110239,30,14.07,5.96,285.0,7.54,39
433,Omboue,GA,1578110240,97,-1.57,9.26,296.79,0.81,100
434,Gat,SN,1578110240,14,14.69,-16.54,295.15,6.7,100
435,Mbanza-Ngungu,CD,1578110240,98,-5.25,14.87,293.6,0.69,98
436,Opuwo,NA,1578110240,86,-18.06,13.84,293.0,0.9,64
437,Marsa Matruh,EG,1578110018,81,31.35,27.25,283.15,6.2,40
438,Luderitz,NA,1578110240,77,-26.65,15.16,290.15,6.2,0
439,Amapa,HN,1578110129,74,15.09,-87.97,299.15,1.05,20
440,San-Pedro,CI,1578110241,60,4.75,-6.64,300.82,2.68,76
441,Joshimath,IN,1578110241,48,30.57,79.57,270.96,2.08,61
442,Calvinia,ZA,1578110241,54,-31.47,19.78,286.15,2.1,0
443,Marsh Harbour,BS,1578110241,82,26.54,-77.06,297.71,6.5,58
444,Berlevag,NO,1578110241,78,70.86,29.09,275.42,9.55,43
445,Tachov,CZ,1578110241,100,49.8,12.63,278.15,3.6,90
446,Handan,CN,1578110241,35,36.58,114.48,279.67,2.35,100
447,Muros,ES,1578110242,100,42.77,-9.06,282.59,1.5,20
448,Albanel,CA,1578110242,80,48.88,-72.44,274.15,3.6,90
449,Hovd,NO,1578110242,64,63.83,10.7,277.15,16.5,40
450,Kutum,SD,1578110242,41,14.2,24.66,282.61,2.1,67
451,Isla Mujeres,MX,1578110056,78,21.23,-86.73,300.15,4.1,5
452,Okha,RU,1578110242,94,53.59,142.95,257.42,9.12,100
453,Linjiang,CN,1578110243,79,41.81,126.91,265.32,2.35,45
454,Teya,MX,1578110243,83,21.05,-89.07,298.15,3.6,75
455,Rapar,IN,1578110243,63,23.57,70.65,290.31,2.89,47
456,Villefontaine,FR,1578110243,100,45.61,5.16,280.15,2.1,75
457,Knysna,ZA,1578110243,93,-34.04,23.05,292.15,0.5,75
458,Izumo,JP,1578110243,46,35.37,132.75,285.15,8.7,40
459,Belaya Gora,RU,1578110244,100,68.54,146.19,241.54,0.35,17
460,Nantucket,US,1578110244,93,41.28,-70.1,280.93,5.53,90
461,Cockburn Town,TC,1578110244,78,21.46,-71.14,299.49,8.34,90
462,Hambantota,LK,1578110244,88,6.12,81.12,301.15,4.6,0
463,Teknaf,BD,1578110244,88,20.86,92.31,294.34,0.79,76
464,Henties Bay,NA,1578110244,93,-22.12,14.28,289.26,1.34,40
465,Kalemie,CD,1578110244,97,-5.95,29.2,290.52,1.61,100
466,Sao Pedro do Piaui,BR,1578110244,94,-5.93,-42.72,294.76,1.03,100
467,Agirish,RU,1578110245,94,61.92,63.02,267.89,5.44,100
468,Port Hardy,CA,1578110094,87,50.7,-127.42,279.15,5.7,75
469,Tura,RU,1578110245,99,64.27,100.22,251.72,0.5,100
470,Tinskoy,RU,1578110245,84,56.15,96.92,267.13,4.19,41
471,Sovetskiy,RU,1578110245,92,56.76,48.47,271.95,7.5,100
472,Lawrenceburg,US,1578110245,93,35.24,-87.33,287.15,3.65,90
473,Hun,BE,1578110246,100,50.34,4.87,277.15,3.1,61
474,Dawei,MM,1578110246,63,14.07,98.19,299.44,2.4,0
475,Kloulklubed,PW,1578110246,66,7.04,134.26,302.15,4.6,90
476,Port Lincoln,AU,1578110246,66,-34.72,135.86,290.11,6.08,100
477,Tepulco,MX,1578110246,63,19.12,-97.98,285.4,2.01,76
478,Giehun,SL,1578110246,44,8.17,-11.09,291.04,1.07,0
479,Stykkisholmur,IS,1578110246,91,65.08,-22.73,262.63,4.42,100
480,Cairns,AU,1578109985,88,-16.92,145.77,303.15,6.2,75
481,Russkaya Polyana,RU,1578110247,93,53.78,73.88,260.92,5.5,13
482,Ust-Kut,RU,1578110247,92,56.78,105.75,267.08,5.15,100
483,Hammerfest,NO,1578110247,89,70.66,23.68,273.15,7.2,75
484,Ovre Ardal,NO,1578110247,97,61.32,7.8,260.31,2.29,100
485,Vermillion,US,1578110247,73,42.78,-96.93,270.93,5.1,1
486,Waingapu,ID,1578110247,78,-9.65,120.26,302.0,11.37,87
487,Clyde River,CA,1578110248,66,70.47,-68.59,237.15,1.5,1
488,Patiya,BD,1578110248,100,22.3,91.98,291.15,1.3,90
489,Birao,CF,1578110248,26,10.3,22.78,291.24,5.32,100
490,San Juan,AR,1578110248,30,-31.54,-68.53,303.72,6.77,16
491,Kitami,JP,1578110248,45,43.8,143.9,268.15,3.1,40
492,Sampit,ID,1578110248,56,-2.54,112.95,304.34,1.47,90
493,Sur,OM,1578110248,65,22.57,59.53,292.7,2.26,0
494,Tshane,BW,1578110249,45,-24.02,21.87,298.28,3.32,0
495,Novyy Urgal,RU,1578110249,89,51.07,132.56,244.82,0.57,0
496,Kalmunai,LK,1578110069,74,7.42,81.82,300.94,4.51,8
497,Tema,GH,1578110249,33,5.66,-0.01,298.15,2.6,48
498,Hollins,US,1578110249,100,37.35,-79.95,284.82,3.1,90
499,Tessalit,ML,1578110249,35,20.2,1.01,282.85,6.1,29
500,Santa Isabel,MX,1578110250,38,32.63,-115.58,288.15,1.46,1
501,Paraibano,BR,1578110250,88,-6.43,-43.99,295.5,0.72,97
502,Haines Junction,CA,1578110147,99,60.75,-137.51,249.99,2.65,100
503,Mana,NG,1578110250,23,13.03,5.27,286.44,7.14,14
504,Carman,CA,1578110250,100,49.51,-98.0,269.26,3.72,1
505,Amalapuram,IN,1578110250,83,16.58,82.0,299.15,3.6,40
506,Bandarbeyla,SO,1578110250,76,9.49,50.81,298.82,6.81,100
507,Kala Nera,GR,1578110250,51,39.31,23.12,281.48,3.36,20
508,Buin,CL,1578110251,60,-33.73,-70.74,293.15,4.6,0
509,Sturgeon Bay,US,1578110251,86,44.83,-87.38,273.71,3.1,90
510,Acajutla,SV,1578110251,88,13.59,-89.83,293.71,1.97,11
511,Tautira,PF,1578110251,70,-17.73,-149.15,302.15,2.6,75
512,Gashua,NG,1578110251,29,12.87,11.04,285.02,4.74,100
513,Bemidji,US,1578110251,100,47.48,-94.89,269.26,2.6,90
514,Oga,IT,1578110251,99,46.46,10.35,273.15,2.6,5
515,Tasiilaq,GL,1578110164,41,65.61,-37.64,267.15,3.6,100
516,Sterling,US,1578110037,93,39.0,-77.4,285.37,2.52,90
517,Meadow Lake,CA,1578110252,92,54.13,-108.44,260.31,2.64,95
518,Shiyan,CN,1578110252,65,32.65,110.78,279.26,1.46,71
519,Ruidoso,US,1578109976,43,33.33,-105.67,275.15,4.6,1
520,Adrar,DZ,1578110252,48,27.87,-0.29,277.15,4.6,100
521,Kijang,KR,1578110252,28,35.24,129.21,279.15,5.1,100
522,Sembakung,ID,1578110253,65,3.82,117.25,302.05,2.23,100
523,Golynki,RU,1578110253,93,54.87,31.38,273.35,5.46,88
524,Morehead,US,1578110253,100,38.18,-83.43,285.37,3.1,90
525,Faanui,PF,1578110253,78,-16.48,-151.75,300.64,4.79,70
526,Salalah,OM,1578110166,64,17.01,54.1,294.15,3.1,20
527,Arandis,NA,1578110253,93,-22.42,14.98,289.26,1.34,18
528,Caravelas,BR,1578110253,95,-17.73,-39.27,296.2,5.0,100
529,Ombessa,CM,1578110253,48,4.6,11.26,292.11,0.02,12
530,Houma,CN,1578110254,53,35.63,111.36,278.13,1.24,100
531,Phuket,TH,1578110254,62,7.89,98.4,303.15,5.1,20
532,Raahe,FI,1578110254,68,64.68,24.47,272.15,3.6,20
533,Rondonopolis,BR,1578110254,90,-16.46,-54.64,296.68,0.36,12
534,Lillehammer,NO,1578110254,82,61.11,10.47,267.59,1.34,6
535,Prieska,ZA,1578110255,30,-29.67,22.74,294.06,0.32,0
536,Dana Point,US,1578110255,62,33.47,-117.7,289.15,0.96,1
537,Oranjestad,AW,1578110080,74,12.52,-70.03,300.15,6.2,20
538,Bo Phloi,TH,1578110255,51,14.32,99.52,301.21,3.98,0
539,Evensk,RU,1578110090,69,61.92,159.24,260.6,4.74,100
540,Aksarka,RU,1578110255,96,66.56,67.8,257.98,4.54,91
541,Sept-Iles,CA,1578110088,85,50.2,-66.38,267.59,2.1,90
542,Khandagayty,MN,1578110256,86,50.73,92.07,248.04,0.48,3
543,Ranong,TH,1578110256,70,9.96,98.62,302.15,1.5,75
544,Hofn,IS,1578110256,65,64.25,-15.21,272.92,4.86,100
545,Sona,PA,1578110256,88,8.01,-81.32,296.78,0.34,47
546,Itaueira,BR,1578110256,90,-7.6,-43.03,294.79,0.93,81
547,Kirakira,SB,1578110256,69,-10.46,161.92,302.0,4.27,81
548,Richmond,CA,1578110256,71,49.16,-123.14,287.15,7.2,90
549,Sao Filipe,CV,1578110257,73,14.9,-24.5,294.79,4.57,88
550,Mansa,IN,1578110257,77,23.43,72.66,288.15,2.6,40
551,Filingue,NE,1578110257,28,14.35,3.32,285.74,5.4,0
552,Imbituba,BR,1578110257,88,-28.24,-48.67,296.15,1.5,75
553,Yasnyy,RU,1578110257,93,64.04,44.09,275.13,6.25,100
554,Priargunsk,RU,1578110257,94,50.37,119.09,251.25,1.67,19
555,Ikovka,RU,1578110257,91,55.61,64.94,263.55,5.93,100
556,Mbini,GQ,1578110258,69,1.58,9.62,300.21,4.39,100
557,Nilanga,IN,1578110258,82,18.12,76.75,293.1,4.22,40
558,Bako,BF,1578110258,21,12.29,-0.73,285.56,4.33,72
559,Nuuk,GL,1578110258,79,64.17,-51.74,268.15,6.7,97
560,Santa Rosa,AR,1578110258,54,-36.62,-64.29,296.76,6.58,0
561,Hami,CN,1578110258,55,42.84,93.51,266.01,1.03,0
562,Mnogovershinnyy,RU,1578110258,93,53.94,139.92,256.42,3.05,100
563,Huejuquilla el Alto,MX,1578110259,47,22.63,-103.9,282.43,0.89,0
564,Chara,GR,1578110259,92,39.42,22.43,275.37,0.84,0
565,Makakilo City,US,1578110259,88,21.35,-158.09,299.15,6.22,90
566,La Seyne-sur-Mer,FR,1578110259,81,43.1,5.88,284.26,0.5,7
567,Grand-Santi,GF,1578110259,96,4.27,-54.38,294.16,0.71,55
568,Pasni,PK,1578110259,86,25.26,63.48,291.01,1.01,1
569,Pisco,PE,1578110259,88,-13.71,-76.2,295.15,5.7,90
570,Bambanglipuro,ID,1578110260,76,-7.95,110.28,301.45,5.89,100
571,Gongzhuling,CN,1578110260,89,43.5,124.81,262.31,2.46,0
572,Mollendo,PE,1578110260,84,-17.03,-72.02,293.14,2.08,81
573,Toowoomba,AU,1578110260,19,-27.56,151.95,308.15,3.1,0
574,Ahuimanu,US,1578110260,88,21.44,-157.84,299.15,6.22,90
575,Kabalo,CD,1578110260,99,-6.05,26.92,292.77,1.19,99
576,Aklavik,CA,1578110261,75,68.22,-135.01,245.15,3.1,90
