,City,Country,Date,Humidity,Lat,Lng,Max Temp,Wind Speed
0,Tasiilaq,GL,1577139407,47,65.61,-37.64,263.15,2.1
1,New Norfolk,AU,1577139330,62,-42.78,147.06,289.26,3.6
2,Barrow,AR,1577139407,15,-38.31,-60.23,307.99,9.59
3,Kamenka,MD,1577139407,92,48.03,28.7,282.04,0.45
4,Cape Town,ZA,1577139387,82,-33.93,18.42,290.93,2.6
5,Tubmanburg,LR,1577139407,88,6.87,-10.82,297.86,1.02
6,Georgetown,GY,1577139407,88,6.8,-58.16,300.15,9.18
7,Bredasdorp,ZA,1577139407,82,-34.53,20.04,286.48,1.0
8,Hoi An,VN,1577139408,88,15.88,108.33,296.15,3.79
9,Dalipuga,PH,1577139408,93,8.32,124.25,296.48,1.79
10,Kapaa,US,1577139408,69,22.08,-159.32,301.15,1.5
11,Busselton,AU,1577139408,51,-33.64,115.35,292.04,4.87
12,Salyan,AZ,1577139408,93,39.59,48.98,281.08,0.51
13,Obama,JP,1577139408,88,35.49,135.74,278.71,6.48
14,Hobart,AU,1577139408,62,-42.88,147.33,289.26,3.6
15,Gizo,IL,1577139409,58,31.8,34.94,285.93,2.6
16,Rikitea,PF,1577139409,81,-23.12,-134.97,296.89,4.84
17,Port Elizabeth,US,1577139409,80,39.31,-74.98,282.59,2.69
18,Jamestown,AU,1577139409,36,-33.21,138.6,295.01,2.67
19,East London,ZA,1577139409,52,-33.02,27.91,300.89,4.27
20,Lebu,ET,1577139409,62,8.96,38.73,288.15,3.1
21,Port Hardy,CA,1577139410,80,50.7,-127.42,278.15,4.1
22,Mar del Plata,AR,1577139410,47,-46.43,-67.52,289.55,7.43
23,Hermanus,ZA,1577139410,92,-34.42,19.24,288.71,5.28
24,Harper,US,1577139410,7,30.3,-99.24,297.15,2.9
25,Hohhot,CN,1577139410,72,40.81,111.65,263.15,1.0
26,Lompoc,US,1577139228,93,34.64,-120.46,287.59,3.1
27,Luderitz,NA,1577139410,87,-26.65,15.16,288.15,4.6
28,Mataura,NZ,1577139411,72,-46.19,168.86,286.48,0.89
29,Lagoa,PT,1577139411,93,37.14,-8.45,289.26,1.0
30,Vaini,IN,1577139411,71,15.34,74.49,292.52,2.71
31,Butaritari,KI,1577139411,81,3.07,172.79,300.67,8.85
32,Ushuaia,AR,1577139114,53,-54.81,-68.31,283.15,12.9
33,Qaanaaq,GL,1577139306,96,77.48,-69.36,253.17,1.76
34,Clyde River,CA,1577139412,83,70.47,-68.59,249.15,2.1
35,Atuona,PF,1577139412,61,-9.8,-139.03,299.89,4.49
36,Tarakan,ID,1577139412,91,3.3,117.63,297.47,2.87
37,Buloh Kasap,MY,1577139412,83,2.55,102.76,299.15,2.1
38,Port Alfred,ZA,1577139412,92,-33.59,26.89,291.48,7.57
39,Arraial do Cabo,BR,1577139413,94,-22.97,-42.02,296.15,3.1
40,Norman Wells,CA,1577139413,73,65.28,-126.83,237.15,0.47
41,Rawson,AR,1577139413,63,-43.3,-65.11,289.56,7.65
42,Thompson,CA,1577139413,92,55.74,-97.86,263.15,2.6
43,Saskylakh,RU,1577139414,91,71.97,114.09,244.53,1.4
44,Pangnirtung,CA,1577139414,65,66.15,-65.72,257.15,0.56
45,Fortuna,US,1577139414,71,40.6,-124.16,285.93,6.2
46,Ilulissat,GL,1577139414,55,69.22,-51.1,259.15,0.5
47,Banda Aceh,ID,1577139414,91,5.56,95.32,294.68,2.56
48,Havre-Saint-Pierre,CA,1577139415,62,50.23,-63.6,266.15,7.2
49,Sistranda,NO,1577139415,86,63.73,8.83,279.26,5.1
50,Bara,NG,1577139415,15,10.41,10.6,292.71,3.14
51,Kirakira,SB,1577139415,81,-10.46,161.92,299.86,1.7
52,Cockburn Town,TC,1577139415,74,21.46,-71.14,300.15,7.7
53,Alofi,NU,1577139415,79,-19.06,-169.92,302.15,5.1
54,Yellowknife,CA,1577139312,76,62.45,-114.38,253.71,3.1
55,Karratha,AU,1577139415,72,-20.74,116.85,302.54,5.25
56,Mitchell,US,1577139416,80,43.71,-98.03,274.26,2.1
57,Punta Arenas,CL,1577139416,50,-53.16,-70.91,284.15,8.7
58,Bluff,AU,1577139416,75,-23.58,149.07,296.09,1.33
59,Vestmannaeyjar,IS,1577139416,88,63.44,-20.27,276.99,4.14
60,Serafimovich,RU,1577139416,83,49.58,42.73,273.71,3.58
61,Mildura,AU,1577139416,22,-34.18,142.16,298.71,3.1
62,Sur,OM,1577139417,43,22.57,59.53,292.61,2.62
63,Calvinia,ZA,1577139417,37,-31.47,19.78,290.63,3.09
64,Sabha,LY,1577139417,31,27.03,14.43,288.38,3.0
65,Birao,CF,1577139417,21,10.3,22.78,295.34,3.83
66,Castro,CL,1577139417,87,-42.48,-73.76,284.15,3.6
67,Hailakandi,IN,1577139417,96,24.69,92.56,284.2,0.82
68,Ponta do Sol,BR,1577139417,88,-20.63,-46.0,295.14,1.94
69,Hobyo,SO,1577139418,77,5.35,48.53,297.7,7.21
70,Hilo,US,1577139418,61,19.71,-155.08,300.15,3.1
71,Watsa,CD,1577139418,72,3.04,29.53,292.28,0.78
72,Naze,NG,1577139418,31,5.43,7.07,298.52,2.08
73,Albany,US,1577139147,56,42.65,-73.75,282.59,1.5
74,Chara,GR,1577139419,70,39.42,22.43,282.15,2.1
75,Broome,GB,1577139419,87,52.47,1.45,280.37,4.1
76,La Ronge,CA,1577139419,92,55.1,-105.3,268.15,1.5
77,Muyezerskiy,RU,1577139419,98,63.93,31.65,273.32,1.24
78,Puerto Ayora,EC,1577139419,58,-0.74,-90.35,301.15,6.2
79,Codrington,AU,1577139419,88,-28.95,153.24,296.15,1.17
80,Vigrestad,NO,1577139419,93,58.57,5.7,278.71,1.0
81,Ekhabi,RU,1577139420,93,53.51,142.97,250.41,7.84
82,Talnakh,RU,1577139420,78,69.49,88.39,261.15,13.0
83,Waingapu,ID,1577139420,70,-9.65,120.26,302.53,1.94
84,Kaitangata,NZ,1577139421,92,-46.28,169.85,283.71,2.68
85,Kurikka,FI,1577139421,98,62.62,22.4,274.82,1.48
86,Manokwari,ID,1577139421,77,-0.87,134.08,296.76,2.08
87,Nikolskoye,RU,1577139421,93,59.7,30.79,277.15,3.0
88,Grindavik,IS,1577139421,74,63.84,-22.43,274.15,1.0
89,Talakan,RU,1577139422,99,50.29,130.28,240.55,0.33
90,Bathsheba,BB,1577139422,74,13.22,-59.52,300.15,10.3
91,Sioux Lookout,CA,1577139422,66,50.1,-91.92,266.15,0.26
92,Aklavik,CA,1577139123,74,68.22,-135.01,243.15,1.0
93,Mandalgovi,MN,1577139422,94,45.76,106.27,259.59,2.1
94,Provideniya,RU,1577139422,61,64.42,-173.23,263.15,7.0
95,Severo-Kurilsk,RU,1577139422,94,50.68,156.12,266.73,3.97
96,Mahebourg,MU,1577139422,78,-20.41,57.7,299.26,7.7
97,Konskie,PL,1577139423,100,51.19,20.41,278.71,0.45
98,Vaitape,PF,1577139423,89,-16.52,-151.75,298.53,5.34
99,Hithadhoo,MV,1577139423,83,-0.6,73.08,300.12,7.32
100,Torbay,CA,1577139423,85,47.66,-52.73,269.82,3.1
101,Sunland Park,US,1577139423,24,31.8,-106.58,288.15,2.1
102,Wuchi,CN,1577139423,95,29.38,103.02,273.56,0.54
103,Tessalit,ML,1577139423,10,20.2,1.01,293.81,4.68
104,Henderson,US,1577139294,34,36.04,-114.98,285.37,2.6
105,Honiara,SB,1577139424,88,-9.43,159.96,300.15,2.1
106,Chokurdakh,RU,1577139424,95,70.62,147.9,244.31,0.36
107,Jieshi,CN,1577139424,84,22.82,115.83,292.04,1.89
108,Avarua,CK,1577139424,78,-21.21,-159.78,297.15,10.3
109,Avera,US,1577139424,87,33.19,-82.53,289.15,7.2
110,Carnarvon,ZA,1577139424,20,-30.97,22.13,295.0,5.09
111,Buala,SB,1577139425,81,-8.15,159.59,300.51,1.59
112,Daru,PG,1577139425,85,-9.07,143.21,299.08,1.89
113,Tual,ID,1577139425,69,-5.67,132.75,302.01,1.57
114,Atar,MR,1577139425,13,20.52,-13.05,295.87,4.31
115,Bunbury,GB,1577139425,87,53.12,-2.65,280.15,3.6
116,Buin,CL,1577139425,16,-33.73,-70.74,308.15,4.6
117,Katsuura,JP,1577139425,81,33.93,134.5,280.15,1.5
118,Clinton,US,1577139393,83,41.28,-72.53,283.15,3.6
119,Haines Junction,CA,1577139426,97,60.75,-137.51,263.17,3.74
120,Dalen,IQ,1577139426,100,35.23,45.96,293.15,2.1
121,Inhambane,MZ,1577139426,82,-23.87,35.38,298.93,3.55
122,Bethel,US,1577139426,77,60.79,-161.76,256.15,7.2
123,Padang,ID,1577139426,96,-0.92,100.36,293.38,1.38
124,Ancud,CL,1577139426,87,-41.87,-73.83,284.15,3.6
125,Jiwani,PK,1577139426,42,25.05,61.74,296.53,4.69
126,Iguape,BR,1577139427,94,-24.7,-47.56,296.28,2.01
127,Dalian,CN,1577139427,94,19.86,110.11,293.15,2.0
128,Ribeira Grande,PT,1577139427,76,38.52,-28.7,287.15,3.1
129,Maceio,BR,1577139427,83,-9.67,-35.74,298.15,2.6
130,Saint-Philippe,CA,1577139427,81,45.36,-73.48,279.82,7.7
131,Oriximina,BR,1577139427,67,-1.77,-55.87,303.07,2.23
132,Kruisfontein,ZA,1577139428,85,-34.0,24.73,291.33,4.53
133,Khatanga,RU,1577139428,92,71.98,102.47,246.19,3.34
134,Rundu,NA,1577139428,65,-17.91,19.77,299.15,1.0
135,Narsaq,GL,1577139428,46,60.91,-46.05,271.15,4.6
136,Edd,ER,1577139428,62,13.93,41.69,298.09,1.06
137,Chuy,UY,1577139428,57,-33.69,-53.46,294.5,5.46
138,Maumere,ID,1577139428,74,-8.63,122.22,298.92,1.88
139,Husavik,CA,1577139428,79,50.56,-96.99,264.26,1.38
140,Longyearbyen,NO,1577139429,85,78.22,15.63,269.15,1.5
141,Skelleftea,SE,1577139143,92,64.75,20.95,266.15,2.6
142,Oktyabrskoye,RU,1577139429,78,56.73,85.44,262.59,7.0
143,Gorontalo,ID,1577139429,92,0.54,123.06,297.04,1.55
144,Vila Franca do Campo,PT,1577139429,93,37.72,-25.43,287.15,3.6
145,Lasa,CY,1577139429,72,34.92,32.53,292.15,4.6
146,Dikson,RU,1577139429,93,73.51,80.55,255.84,6.32
147,Kodiak,US,1577139430,50,39.95,-94.76,286.15,3.1
148,Pudozh,RU,1577139430,98,61.81,36.54,273.8,0.99
149,Kefamenanu,ID,1577139430,92,-9.45,124.48,295.33,1.58
150,Koson,UZ,1577139430,62,39.04,65.59,275.15,1.0
151,Saint-Pierre,FR,1577139430,93,48.95,4.24,281.15,4.6
152,Constitucion,MX,1577139430,17,23.99,-104.67,295.15,6.2
153,Te Anau,NZ,1577139431,77,-45.41,167.72,280.04,0.52
154,Nanortalik,GL,1577139431,71,60.14,-45.24,271.58,3.3
155,Saint-Augustin,CA,1577139431,78,45.63,-73.98,279.15,5.7
156,Isangel,VU,1577139431,57,-19.55,169.27,300.15,1.0
157,Sitka,US,1577139431,16,37.17,-99.65,292.04,3.13
158,Smoky Lake,CA,1577139432,91,54.11,-112.47,268.15,2.68
159,Cuamba,MZ,1577139432,96,-14.8,36.54,294.14,1.93
160,Kavieng,PG,1577139432,75,-2.57,150.8,302.25,5.1
161,Buraydah,SA,1577139432,37,26.33,43.97,286.15,2.6
162,Darfield,NZ,1577139433,51,-43.49,172.11,290.93,5.1
163,Hovd,NO,1577139433,92,63.83,10.7,279.26,1.0
164,Havoysund,NO,1577139433,74,71.0,24.66,272.15,5.7
165,Gat,SN,1577139433,31,14.69,-16.54,300.15,5.7
166,Soverato,IT,1577139433,81,38.69,16.55,284.15,2.6
167,Katangli,RU,1577139433,90,51.71,143.23,246.36,2.61
168,Beloha,MG,1577139434,63,-25.17,45.06,299.07,5.62
169,Troitsk,RU,1577139434,76,54.08,61.55,270.4,6.05
170,Saint-Jean-de-Luz,FR,1577139169,63,43.39,-1.66,289.15,3.1
171,Zhanaozen,KZ,1577139434,63,43.35,52.85,272.59,10.55
172,Mulege,MX,1577139434,33,26.88,-111.98,298.21,4.18
173,Paamiut,GL,1577139434,72,61.99,-49.67,270.22,2.66
174,Hay River,CA,1577139434,78,60.82,-115.79,260.15,3.1
175,Esperance,AU,1577139435,82,-33.86,121.89,290.15,3.1
176,Manavalakurichi,IN,1577139435,94,8.13,77.3,300.15,9.77
177,Benguela,AO,1577139435,79,-12.58,13.4,299.02,2.61
178,Ningxiang,CN,1577139435,93,28.28,112.55,281.15,3.0
179,Saldanha,PT,1577139435,88,41.42,-6.55,281.51,1.46
180,Kuusamo,FI,1577139378,100,65.96,29.19,272.15,2.1
181,Huangchuan,CN,1577139436,70,24.57,102.46,281.15,5.0
182,Edendale,ZA,1577139436,94,-29.65,30.31,295.37,1.3
183,Dwarka,IN,1577139436,100,28.58,77.04,287.59,0.47
184,Bandarbeyla,SO,1577139436,72,9.49,50.81,298.25,10.84
185,Tocopilla,CL,1577139363,27,-22.09,-70.2,295.71,4.3
186,Waipawa,NZ,1577139436,85,-39.94,176.59,288.71,2.68
187,La Palma,CO,1577139436,68,5.36,-74.39,300.63,1.15
188,Jati,PK,1577139437,21,24.35,68.27,290.39,4.66
189,Diapaga,BF,1577139437,12,12.07,1.79,294.98,2.98
190,Baruun-Urt,MN,1577139437,87,46.68,113.28,257.58,0.56
191,Kaura Namoda,NG,1577139437,14,12.59,6.58,292.31,3.67
192,Tigil,RU,1577139437,95,57.8,158.67,253.65,2.78
193,Axim,GH,1577139437,86,4.87,-2.24,299.58,1.48
194,Klaksvik,FO,1577139437,100,62.23,-6.59,276.15,3.73
195,Thunder Bay,CA,1577139435,58,48.41,-89.26,270.37,2.1
196,Saint-Francois,FR,1577139438,81,46.42,3.91,279.82,2.1
197,Upernavik,GL,1577139438,72,72.79,-56.15,256.22,1.54
198,Talcahuano,CL,1577139438,77,-36.72,-73.12,293.15,5.1
199,Shimoda,JP,1577139438,88,34.7,138.93,278.15,11.67
200,Iqaluit,CA,1577139438,77,63.75,-68.52,258.15,1.0
201,Nosy Varika,MG,1577139438,88,-20.58,48.53,297.05,1.93
202,Westport,US,1577139438,70,41.14,-73.36,283.71,2.6
203,Praia da Vitoria,PT,1577139439,87,38.73,-27.07,287.15,1.88
204,Faanui,PF,1577139439,89,-16.48,-151.75,298.53,5.34
205,Nardaran,AZ,1577139439,81,40.56,50.01,284.15,5.1
206,Samana,EC,1577139439,100,0.12,-76.97,295.15,2.1
207,Laguna,BZ,1577139439,73,16.17,-88.94,298.15,5.1
208,Vung Tau,VN,1577139439,88,10.35,107.08,296.61,2.95
209,Morondava,MG,1577139439,79,-20.3,44.28,299.43,0.87
210,Teguise,ES,1577139440,39,29.06,-13.56,291.15,1.0
211,Port Lincoln,AU,1577139440,63,-34.72,135.86,292.49,2.04
212,Amambai,BR,1577139440,64,-23.11,-55.23,299.0,1.73
213,Jackson,US,1577139297,38,43.48,-110.76,278.15,4.1
214,Skibbereen,IE,1577139440,100,51.55,-9.27,280.15,4.6
215,Tiksi,RU,1577139440,100,71.64,128.87,249.23,1.96
216,Leningradskiy,RU,1577139440,96,69.38,178.42,248.61,6.83
217,Safford,US,1577139298,32,32.83,-109.71,285.15,3.6
218,Moba,CD,1577139441,73,-7.04,29.77,297.81,2.77
219,Zaranj,AF,1577139441,80,30.95,61.86,277.15,2.1
220,Sao Filipe,CV,1577139441,74,14.9,-24.5,296.19,3.29
221,Vidim,CZ,1577139441,80,50.47,14.53,279.15,5.1
222,Kologriv,RU,1577139441,97,58.83,44.31,274.51,3.52
223,Campos Belos,BR,1577139441,53,-13.04,-46.77,302.63,1.13
224,Broken Hill,AU,1577139441,13,-31.97,141.45,300.15,3.6
225,Tuktoyaktuk,CA,1577139442,75,69.44,-133.03,245.15,1.5
226,San Quintin,PH,1577139442,73,17.54,120.52,293.68,1.93
227,Kitimat,CA,1577139442,89,54.02,-128.69,273.15,2.1
228,Mamallapuram,IN,1577139442,83,12.63,80.17,299.82,2.1
229,Guerrero Negro,MX,1577139442,51,27.97,-114.04,294.12,4.86
230,The Pas,CA,1577139442,85,53.82,-101.24,264.15,2.6
231,Souillac,FR,1577139442,93,45.6,-0.6,284.26,4.6
232,Vardo,US,1577139443,56,39.62,-77.74,283.71,1.09
233,Tsogni,GA,1577139443,82,-2.79,10.1,300.6,2.73
234,Antalaha,MG,1577139443,82,-14.9,50.28,300.41,10.9
235,Sorland,NO,1577139443,87,67.67,12.69,279.24,3.2
236,Srednekolymsk,RU,1577139443,97,67.46,153.71,244.03,1.75
237,Aswan,EG,1577139403,28,24.09,32.9,288.15,3.6
238,Dalbandin,PK,1577139444,38,28.9,64.41,281.8,1.44
239,Ironton,US,1577139334,66,38.54,-82.68,287.15,2.6
240,Biltine,TD,1577139444,18,14.53,20.93,292.18,2.71
241,Abbeville,FR,1577139444,87,50.11,1.83,282.15,5.7
242,Abu Zabad,SD,1577139444,27,12.35,29.25,294.08,5.97
243,Gilgit,PK,1577139444,48,35.92,74.31,257.56,0.79
244,Caravelas,BR,1577139444,79,-17.73,-39.27,297.63,5.3
245,Lohr,DE,1577139445,90,50.15,10.71,279.82,0.45
246,Urusha,RU,1577139445,88,54.05,122.9,241.83,1.3
247,Flinders,AU,1577139445,77,-34.58,150.85,296.48,2.6
248,Touros,BR,1577139445,74,-5.2,-35.46,300.15,4.1
249,Lindi,TZ,1577139445,93,-10.0,39.71,295.55,0.62
250,Aba,NG,1577139300,76,5.11,7.36,298.21,2.13
251,Yar-Sale,RU,1577139445,93,66.83,70.83,252.15,9.54
252,Cobija,BR,1577139446,78,-11.02,-68.77,300.15,3.1
253,Ca Mau,VN,1577139446,93,9.18,105.15,295.99,1.56
254,Kuytun,RU,1577139446,98,54.34,101.51,251.99,0.65
255,Faya,SA,1577139446,76,18.39,42.45,286.15,1.1
256,Prince Rupert,CA,1577139446,93,54.32,-130.32,277.15,8.2
257,Capreol,CA,1577139446,82,46.71,-80.92,273.15,8.2
258,Lipari,IT,1577139446,81,38.47,14.95,288.15,4.1
259,Tignere,CM,1577139446,28,7.37,12.65,293.23,1.03
260,Vallenar,CL,1577139447,53,-28.58,-70.76,294.31,5.01
261,Rosetta,EG,1577139447,51,31.4,30.42,288.15,4.1
262,Vanimo,PG,1577139447,80,-2.67,141.3,300.43,1.94
263,Tonekabon,IR,1577139447,87,36.82,50.88,281.15,3.65
264,Vila Velha,BR,1577139447,69,-3.71,-38.6,303.15,3.1
265,Ochamchira,GE,1577139447,43,42.71,41.47,287.79,7.73
266,Victoria,BN,1577139448,94,5.28,115.24,298.15,2.6
267,Corleone,IT,1577139448,63,37.81,13.3,289.15,12.3
268,Swellendam,ZA,1577139448,82,-34.02,20.44,286.15,1.0
269,Sao Joao da Barra,BR,1577139448,74,-21.64,-41.05,300.15,5.1
270,Manado,ID,1577139448,100,1.49,124.85,297.15,0.5
271,Omsukchan,RU,1577139448,94,62.53,155.8,240.49,1.77
272,Ngunguru,NZ,1577139448,67,-35.62,174.5,294.82,4.47
273,Yangjiang,CN,1577139448,91,21.85,111.96,292.26,1.14
274,Roald,NO,1577139449,80,62.58,6.12,274.26,2.6
275,Mezen,RU,1577139449,94,65.85,44.24,262.82,6.05
276,Airai,TL,1577139449,92,-8.93,125.41,292.19,1.35
277,Lazaro Cardenas,MX,1577139449,32,28.39,-105.62,292.15,7.2
278,Salalah,OM,1577139449,30,17.01,54.1,294.15,5.7
279,Muisne,EC,1577139449,78,0.61,-80.02,301.15,4.1
280,Tabou,CI,1577139449,84,4.42,-7.36,299.11,1.75
281,Pierre,US,1577139450,88,44.37,-100.35,274.26,4.6
282,Bangkal,ID,1577139450,91,-2.61,115.39,296.34,0.42
283,Grand Gaube,MU,1577139450,78,-20.01,57.66,299.26,7.7
284,Yabrud,SY,1577139450,69,33.97,36.66,280.37,7.89
285,Kamaishi,JP,1577139450,70,39.28,141.86,273.15,3.02
286,High Level,CA,1577139450,84,58.52,-117.13,257.15,2.6
287,Kalmar,SE,1577139450,100,56.66,16.36,277.59,1.06
288,Pinawa,CA,1577139451,79,50.15,-95.88,267.8,1.84
289,Palmares do Sul,BR,1577139451,47,-30.26,-50.51,296.65,5.27
290,Muroto,JP,1577139451,86,33.37,134.14,278.15,4.1
291,Pahrump,US,1577139451,70,36.21,-115.98,283.15,2.04
292,Cabinda,AO,1577139451,85,-5.56,12.19,300.68,2.92
293,College,US,1577139451,76,64.86,-147.8,250.93,2.01
294,Northam,AU,1577139451,87,-31.65,116.67,290.93,3.47
295,Portland,US,1577139452,52,43.66,-70.25,281.48,4.1
296,Zhigansk,RU,1577139452,94,66.77,123.37,242.05,1.25
297,Belgorod,RU,1577139452,93,50.6,36.59,278.15,6.0
298,Toamasina,MG,1577139452,88,-18.17,49.38,298.15,3.1
299,Isiro,CD,1577139427,64,2.77,27.62,293.95,1.0
300,Riyadh,SA,1577139171,50,24.63,46.72,284.15,1.0
301,Colares,PT,1577139452,100,38.8,-9.45,287.04,3.1
302,Bagdarin,RU,1577139452,78,54.44,113.59,244.63,1.26
303,Seydi,NE,1577139453,10,13.34,7.75,291.47,4.29
304,Iberia,PE,1577139453,76,-11.41,-69.49,298.83,1.81
305,Umm Lajj,SA,1577139453,63,25.02,37.27,291.58,1.78
306,Ambovombe,MG,1577139453,73,-25.18,46.09,297.01,2.71
307,Le Mars,US,1577139453,86,42.79,-96.17,280.37,2.1
308,Tongliao,CN,1577139453,84,43.61,122.27,255.75,3.21
309,Miyako,JP,1577139454,93,33.63,130.94,282.15,2.6
310,Muli,CN,1577139454,92,28.08,109.56,277.1,2.42
311,Tadine,NC,1577139454,60,-21.55,167.88,297.23,3.83
312,Xichang,CN,1577139454,86,27.88,102.25,272.49,1.07
313,Peterongan,ID,1577139454,87,-7.54,112.28,297.53,1.66
314,Ginir,ET,1577139454,78,7.14,40.71,286.95,0.43
315,Port Hueneme,US,1577139455,72,34.15,-119.2,288.15,3.1
316,Rumonge,BI,1577139455,87,-3.97,29.44,292.46,1.29
317,Pevek,RU,1577139455,98,69.7,170.27,243.06,1.54
318,Adelaide,AU,1577139430,73,-34.93,138.6,298.15,0.5
319,Kahului,US,1577139455,69,20.89,-156.47,299.15,4.1
320,Acapulco,MX,1577139397,66,16.86,-99.88,304.15,2.1
321,Ndola,ZM,1577139455,96,-12.97,28.64,290.88,1.83
322,Piney Green,US,1577139456,100,35.09,-78.48,284.26,2.1
323,Coihaique,CL,1577139406,50,-45.58,-72.07,286.15,2.6
324,Sazonovo,RU,1577139456,100,54.2,39.81,277.04,4.47
325,Biak,ID,1577139456,69,-0.91,122.88,301.35,3.12
326,Cheney,US,1577139245,93,47.49,-117.58,277.59,1.5
327,Tema,GH,1577139456,74,5.66,-0.01,302.15,1.5
328,Taoudenni,ML,1577139457,19,22.68,-3.98,293.42,4.22
329,Surt,LY,1577139457,63,31.21,16.59,288.71,7.24
330,Coahuayana,MX,1577139457,34,18.62,-100.35,305.59,1.46
331,Boden,SE,1577139457,92,65.83,21.69,271.15,1.5
332,Hambantota,LK,1577139457,100,6.12,81.12,296.15,1.5
333,Takoradi,GH,1577139457,82,4.89,-1.75,301.2,3.05
334,Almeirim,BR,1577139457,61,-1.53,-52.58,303.23,2.38
335,Ulladulla,AU,1577139457,77,-35.36,150.48,293.15,2.6
336,Coquimbo,CL,1577139458,72,-29.95,-71.34,297.04,5.7
337,Cabedelo,BR,1577139458,83,-6.97,-34.84,299.15,4.1
338,Cadillac,US,1577139345,88,44.25,-85.4,280.15,3.1
339,Bom Sucesso,BR,1577139458,95,-21.03,-44.76,293.19,3.17
340,Idritsa,RU,1577139458,96,56.33,28.9,276.81,0.55
341,Aasiaat,GL,1577139459,88,68.71,-52.87,256.84,2.18
342,Awjilah,LY,1577139459,53,29.14,21.3,287.78,5.14
343,Poum,MK,1577139459,90,41.28,20.71,274.67,1.32
344,Mayo,CA,1577139459,75,63.59,-135.9,247.15,1.0
345,Wewak,PG,1577139459,86,-3.55,143.63,298.02,1.87
346,Nouadhibou,MR,1577139459,33,20.93,-17.03,296.15,5.7
347,Belle Fourche,US,1577139394,45,44.67,-103.85,283.71,2.6
348,Thio,NC,1577139460,47,-21.61,166.22,300.15,1.5
349,Setermoen,NO,1577139460,92,68.86,18.35,270.15,5.1
350,Sabang,PH,1577139460,96,13.8,121.11,295.93,1.21
351,Soyo,AO,1577139460,84,-6.13,12.37,299.83,1.91
352,Jiamusi,CN,1577139460,84,46.81,130.37,249.94,4.46
353,Qixingtai,CN,1577139460,84,30.41,111.89,279.26,4.25
354,Prado,CO,1577139460,52,3.75,-74.93,302.3,0.44
355,Malanje,AO,1577139461,96,-9.54,16.35,292.02,1.49
356,Mangrol,IN,1577139461,40,25.33,76.51,290.02,2.9
357,Rey Bouba,CM,1577139461,23,8.67,14.18,295.48,0.24
358,Rovaniemi,FI,1577139461,97,66.5,25.72,273.15,2.1
359,Nhamunda,BR,1577139461,56,-2.19,-56.71,305.02,1.67
360,Lodwar,KE,1577139461,42,3.12,35.6,302.91,3.07
361,Mikumi,TZ,1577139461,96,-7.4,36.98,293.67,0.82
362,Cravo Norte,CO,1577139181,59,6.3,-70.2,304.05,4.36
363,Port Blair,IN,1577139462,78,11.67,92.75,299.15,2.1
364,Henties Bay,NA,1577139462,90,-22.12,14.28,289.26,3.4
365,Nishihara,JP,1577139462,47,35.74,139.53,282.15,5.1
366,Tabas,IR,1577139462,44,33.6,56.92,278.15,1.0
367,Gravdal,NO,1577139462,93,59.79,5.78,278.71,3.6
368,Port Macquarie,AU,1577139462,100,-31.43,152.91,299.26,3.29
369,Yhu,PY,1577139463,44,-25.05,-55.92,299.28,1.94
370,Emirdag,TR,1577139463,92,39.02,31.15,276.93,1.16
371,Iracoubo,GF,1577139463,82,5.48,-53.21,300.16,8.63
372,Le Port,FR,1577139463,81,42.87,1.37,282.04,1.66
373,Ossora,RU,1577139463,91,59.24,163.07,262.2,3.7
374,Sarab,IR,1577139463,44,38.61,44.99,276.97,2.94
375,Poopo,BO,1577139463,33,-18.38,-66.97,290.96,7.39
376,Wasilla,US,1577139378,92,61.58,-149.44,266.15,1.5
377,Binzhou,CN,1577139464,78,37.38,117.96,272.04,2.02
378,Ostrovnoy,RU,1577139464,91,68.05,39.51,266.26,7.26
379,Praia,BR,1577139464,78,-20.25,-43.81,298.15,2.1
380,Dingle,PH,1577139464,88,11.0,122.67,294.67,3.53
381,Kidal,ML,1577139464,10,18.44,1.41,294.53,4.91
382,Rio Grande,BR,1577139464,34,-32.03,-52.1,300.15,4.1
383,Hamilton,CA,1577139315,70,43.26,-79.87,281.15,3.6
384,Les Cayes,HT,1577139465,75,18.19,-73.75,300.45,8.6
385,Polewali,ID,1577139465,92,-4.03,119.8,296.96,1.72
386,Hangu,PK,1577139465,65,33.53,71.06,280.15,2.1
387,Dongsheng,CN,1577139465,84,29.72,112.52,279.09,2.85
388,North Myrtle Beach,US,1577139466,93,33.83,-78.68,290.15,6.7
389,Harrismith,ZA,1577139466,84,-28.27,29.13,287.09,1.52
390,Pisco,PE,1577139466,30,-13.71,-76.2,295.15,8.7
391,Nargana,PA,1577139466,78,9.44,-78.59,300.28,1.46
392,San Cristobal,HN,1577139466,75,14.68,-86.92,295.13,4.61
393,Samarai,PG,1577139466,86,-10.62,150.67,298.89,1.33
394,Luoyang,CN,1577139466,79,34.66,112.42,275.73,1.72
395,Ola,RU,1577139467,88,59.58,151.3,253.7,4.75
396,Cayenne,GF,1577139467,88,4.94,-52.33,300.15,2.1
397,Beyneu,KZ,1577139467,78,45.32,55.19,272.61,8.02
398,Chicama,PE,1577139467,83,-7.84,-79.15,295.15,5.7
399,Tezu,IN,1577139467,51,27.93,96.16,285.24,1.25
400,Nantucket,US,1577139467,81,41.28,-70.1,281.48,5.7
401,Saint George,GR,1577139468,70,39.45,22.34,282.15,2.1
402,Muros,ES,1577139468,100,42.77,-9.06,289.82,4.1
403,Atambua,ID,1577139468,86,-9.11,124.89,296.89,1.48
404,Cidreira,BR,1577139468,64,-30.17,-50.22,295.19,9.28
405,Campiglia Marittima,IT,1577139468,93,43.06,10.62,290.37,1.0
406,Kovvur,IN,1577139468,89,17.02,81.73,292.29,2.9
407,Burnie,AU,1577139308,72,-41.05,145.91,285.88,4.87
408,Bambous Virieux,MU,1577139469,78,-20.34,57.76,299.26,7.7
409,Gazanjyk,TM,1577139469,52,39.24,55.52,278.73,4.2
410,Carahue,CL,1577139469,77,-38.71,-73.16,292.15,4.1
411,Camp Verde,US,1577139469,43,34.56,-111.85,285.93,1.5
412,Lahaina,US,1577139469,69,20.87,-156.68,302.15,4.1
413,Calabar,NG,1577139469,78,4.98,8.34,299.4,1.4
414,Bayangol,MN,1577139469,98,48.91,106.09,254.26,1.83
415,Abu Road,IN,1577139469,55,24.48,72.78,289.18,1.14
416,Batemans Bay,AU,1577139470,79,-35.71,150.18,292.04,2.24
417,Marabba,SD,1577139470,19,12.35,32.18,297.14,5.43
418,Chumikan,RU,1577139470,75,54.72,135.31,244.2,6.02
419,Veraval,FR,1577139470,87,49.65,0.71,281.15,3.6
420,El Suyatal,HN,1577139470,73,14.54,-87.21,295.15,8.2
421,Gezing,AT,1577139470,81,47.92,13.13,279.26,5.7
422,Kiunga,PG,1577139470,99,-6.12,141.3,296.46,0.86
423,Belyy Yar,RU,1577139471,92,53.6,91.39,264.15,1.0
424,La Romana,DO,1577139183,78,18.43,-68.97,300.15,3.1
425,Lixourion,GR,1577139471,68,38.2,20.43,284.26,0.45
426,Linkebeek,BE,1577139471,87,50.77,4.33,280.93,5.1
427,Guantanamo,BO,1577139471,79,-16.14,-62.05,302.15,3.03
428,Mount Gambier,AU,1577139471,82,-37.83,140.78,287.15,4.6
429,Garmsar,IR,1577139471,49,35.22,52.34,281.22,1.25
430,Renqiu,CN,1577139472,89,38.71,116.1,269.27,2.28
431,Jidong,CN,1577139472,85,45.25,131.14,251.67,3.24
432,Cognac,FR,1577139472,93,45.69,-0.33,284.15,4.6
433,Pokaran,IN,1577139472,29,26.93,71.92,288.22,4.28
434,Nizhniy Odes,RU,1577139472,96,63.64,54.86,254.95,1.78
435,Ayni,TJ,1577139472,89,39.39,68.54,267.88,1.64
436,Arlit,NE,1577139473,11,18.74,7.39,294.18,5.76
437,Amapa,HN,1577139473,69,15.09,-87.97,298.15,4.1
438,Hami,CN,1577139473,60,42.84,93.51,265.22,1.45
439,Gamboula,CF,1577139473,35,4.12,15.14,296.48,0.26
440,Coro,VE,1577139473,79,11.41,-69.67,300.32,7.76
441,Tura,RU,1577139473,93,64.27,100.22,245.15,1.82
442,Alice Springs,AU,1577139474,15,-23.7,133.88,304.15,4.63
443,Tawang,BT,1577139474,77,27.59,91.87,265.94,1.6
444,Diffa,NE,1577139474,12,13.32,12.61,292.46,3.67
445,Nuuk,GL,1577139474,79,64.17,-51.74,268.15,3.6
446,Craigieburn,AU,1577139474,67,-37.6,144.94,290.93,4.6
447,Arman,RU,1577139474,94,59.7,150.17,256.55,7.27
448,Ambanja,MG,1577139474,78,-13.68,48.45,299.52,1.17
449,Benito Juarez,CU,1577139474,94,22.29,-79.63,296.15,2.6
450,Umba,RU,1577139475,95,66.69,34.34,272.19,8.95
451,Kajaani,FI,1577139316,98,64.22,27.73,273.15,2.1
452,Marzuq,YE,1577139475,52,14.4,46.47,285.6,0.56
453,Mikhaylovka,RU,1577139475,100,52.96,103.29,250.81,0.38
454,Kulykiv,UA,1577139475,93,49.98,24.08,277.15,4.0
455,Russell,US,1577139475,30,38.9,-98.86,291.15,6.2
456,Hofn,IS,1577139475,82,64.25,-15.21,278.36,5.95
457,Shubarshi,KZ,1577139475,82,48.59,57.19,260.67,3.67
458,Srivardhan,IN,1577139476,66,18.03,73.02,298.39,1.28
459,Poronaysk,RU,1577139476,92,49.22,143.1,254.85,4.51
460,Martapura,ID,1577139476,92,-3.41,114.85,296.5,0.25
461,Luau,CD,1577139476,90,-10.7,22.23,291.8,0.14
462,Kefalos,GR,1577139476,93,36.75,26.96,285.15,5.1
463,Kushiro,JP,1577139476,57,43.11,144.15,265.15,2.1
464,Nome,US,1577139476,43,30.04,-94.42,295.37,5.1
465,Okhotsk,RU,1577139476,83,59.36,143.24,246.1,7.54
466,Bafq,IR,1577139477,30,31.6,55.4,283.11,2.48
467,Kutulik,RU,1577139477,99,53.35,102.79,250.98,0.59
468,Bereda,ES,1577139477,87,43.27,-7.54,290.37,5.7
469,Solntsevo,RU,1577139477,87,53.34,40.13,276.27,5.9
470,Lavrentiya,RU,1577139477,86,65.58,-170.99,256.41,4.48
471,Whitehorse,CA,1577139205,85,60.72,-135.06,269.15,7.2
472,Fort Nelson,CA,1577139477,76,58.81,-122.69,251.15,1.0
473,Charters Towers,AU,1577139478,78,-20.07,146.27,296.1,2.83
474,Iwanai,JP,1577139478,88,42.97,140.51,265.05,6.02
475,Zakamensk,RU,1577139478,93,50.38,103.29,252.81,0.83
476,Bontang,ID,1577139478,88,0.12,117.47,297.4,2.72
477,Kiama,AU,1577139478,77,-34.67,150.86,295.37,2.6
478,Zabid,YE,1577139478,72,14.2,44.5,286.59,1.48
479,Pacific Grove,US,1577139272,58,36.62,-121.92,287.15,3.6
480,San Lorenzo,HN,1577139479,41,13.43,-87.45,307.15,5.1
481,Tautira,PF,1577139479,74,-17.73,-149.15,301.15,6.7
482,Thurso,CA,1577139479,81,45.6,-75.25,278.15,2.6
483,Loreto,PY,1577139479,39,-23.27,-57.32,303.42,2.07
484,Lucapa,AO,1577139479,92,-8.42,20.74,292.64,0.9
485,Bushehr,IR,1577139442,67,28.97,50.84,287.78,1.79
486,Teya,MX,1577139480,53,21.05,-89.07,297.59,6.2
487,Matay,EG,1577139480,41,28.42,30.79,285.39,3.73
488,Pochutla,MX,1577139480,49,15.74,-96.47,305.37,4.1
489,Dukat,AL,1577139480,83,40.25,19.57,283.71,0.89
490,Presidencia Roque Saenz Pena,AR,1577139480,20,-26.79,-60.44,305.46,1.62
491,Ranong,TH,1577139480,84,9.96,98.62,297.53,2.81
492,Ambilobe,MG,1577139481,84,-13.19,49.05,298.72,0.18
493,Casma,PE,1577139481,88,-9.47,-78.3,293.73,7.18
494,La Libertad,PE,1577139481,42,-16.38,-71.56,291.15,5.7
495,Chikwawa,MW,1577139481,83,-16.03,34.79,293.88,2.49
496,Labuhan,ID,1577139481,91,-2.54,115.51,296.34,0.42
497,Toktogul,KG,1577139481,30,41.87,72.95,259.03,3.01
498,Ostersund,SE,1577139482,100,63.18,14.64,269.82,0.99
499,Atbasar,KZ,1577139482,89,51.81,68.36,258.56,7.65
500,Luanda,AO,1577139300,83,-8.83,13.24,300.15,4.1
501,Bilibino,RU,1577139482,62,68.06,166.44,246.81,2.05
502,Bolobo,CD,1577139482,76,-2.17,16.23,298.01,0.78
503,Byron Bay,AU,1577139247,88,-28.65,153.62,298.15,0.58
504,Koumac,NC,1577139483,68,-20.56,164.28,296.28,1.46
505,Guangyuan,CN,1577139483,83,32.43,105.86,274.82,1.1
506,Adrar,DZ,1577139483,34,27.87,-0.29,292.27,5.32
507,Ilinskiy,RU,1577139483,93,55.62,38.12,280.37,3.0
508,San Patricio,PY,1577139483,39,-26.98,-56.83,301.76,1.4
509,Abu Samrah,SY,1577139483,61,35.3,37.18,283.98,2.27
510,devin,IT,1577139483,25,45.71,7.68,285.15,4.1
511,Golspie,GB,1577139484,88,57.97,-3.98,277.59,1.68
512,Cabo San Lucas,MX,1577139300,60,22.89,-109.91,300.37,3.1
513,Ouadda,CF,1577139484,31,8.07,22.4,295.76,2.81
514,Forbes,AU,1577139484,48,-33.38,148.01,299.82,0.45
515,Van Buren,US,1577139484,92,47.16,-67.94,274.15,2.6
516,Suntar,RU,1577139484,95,62.16,117.65,239.23,2.28
517,Noumea,NC,1577139484,47,-22.28,166.46,300.15,1.5
518,Hervey Bay,AU,1577139485,73,-25.3,152.85,299.82,2.1
519,Lermontovka,RU,1577139485,94,47.15,134.34,247.55,1.3
520,Agropoli,IT,1577139485,55,40.35,15.0,284.26,1.34
521,Madaoua,NE,1577139485,9,14.07,5.96,293.53,4.9
522,Bourail,NC,1577139485,71,-21.57,165.5,295.99,0.59
523,Ketchikan,US,1577139485,93,55.34,-131.65,278.15,12.9
524,Areni,AM,1577139485,86,39.72,45.19,274.15,2.1
525,Jiutai,CN,1577139486,69,44.15,125.84,251.15,2.0
526,Kulhudhuffushi,MV,1577139486,79,6.62,73.07,300.38,8.22
527,Tuatapere,NZ,1577139486,72,-46.13,167.69,286.48,0.89
528,Poshekhonye,RU,1577139486,97,58.5,39.12,275.61,3.35
529,Kawalu,ID,1577139486,87,-7.38,108.21,294.31,0.82
530,Hwange,ZW,1577139486,31,-18.35,26.5,297.3,0.92
531,Hualmay,PE,1577139486,61,-11.1,-77.61,296.77,4.25
532,Ternate,PH,1577139487,88,14.29,120.72,297.15,1.0
533,Kaifeng,CN,1577139487,80,34.8,114.35,274.15,2.0
534,Nemuro,JP,1577139246,62,43.32,145.57,270.57,9.72
535,Shahreza,IR,1577139487,32,32.01,51.87,275.38,0.83
536,Cherskiy,RU,1577139487,92,68.75,161.3,241.47,0.99
537,Lorengau,PG,1577139487,76,-2.02,147.27,301.82,3.9
538,Silver City,US,1577139487,27,32.77,-108.28,283.15,2.1
539,Amalapuram,IN,1577139488,87,16.58,82.0,294.35,1.68
540,Fare,PF,1577139488,80,-16.7,-151.02,299.97,6.46
541,Jiangkou,CN,1577139488,96,30.7,117.56,281.27,1.94
542,Demmin,DE,1577139488,87,53.91,13.03,279.26,4.1
543,Terney,RU,1577139488,81,45.05,136.61,253.63,2.71
544,Kosh-Agach,RU,1577139488,85,49.99,88.66,246.42,0.43
545,Kasulu,TZ,1577139488,89,-4.57,30.11,290.53,0.98
546,Doha,QA,1577139368,63,25.29,51.53,291.15,3.1
