,City,Country,Date,Humidity,Lat,Lng,Max Temp,Wind Speed,Cloudiness
0,Mehamn,NO,1578169633,74,71.03,27.85,267.5,10.94,100
1,Tiarei,PF,1578170132,70,-17.53,-149.33,303.15,4.6,40
2,Hilo,US,1578170114,69,19.71,-155.08,300.15,2.1,90
3,Georgetown,GY,1578169608,69,6.8,-58.16,303.15,4.1,20
4,Albany,US,1578169686,86,42.65,-73.75,279.26,3.1,90
5,Longyearbyen,NO,1578169624,65,78.22,15.63,258.15,3.1,40
6,New Norfolk,AU,1578169308,50,-42.78,147.06,285.37,2.6,75
7,Umm Lajj,SA,1578170132,60,25.02,37.27,284.94,3.96,0
8,Mataura,NZ,1578169602,87,-46.19,168.86,284.26,3.13,98
9,Badvel,IN,1578170133,96,14.74,79.07,294.88,1.6,53
10,Kapaa,US,1578169608,83,22.08,-159.32,298.15,9.3,90
11,Vaini,IN,1578169849,75,15.34,74.49,288.29,0.6,0
12,Huarmey,PE,1578169635,55,-10.07,-78.15,299.05,3.51,92
13,Nishihara,JP,1578170133,100,35.74,139.53,277.59,6.79,1
14,Haines Junction,CA,1578169620,97,60.75,-137.51,250.79,1.48,100
15,Strezhevoy,RU,1578170133,92,60.73,77.6,268.15,6.0,90
16,Busselton,AU,1578169602,41,-33.64,115.35,287.59,4.75,0
17,Sopetran,CO,1578170133,47,6.08,-75.0,303.15,3.1,75
18,Jeremie,HT,1578170133,85,18.65,-74.12,296.88,1.05,49
19,Naze,NG,1578169623,57,5.43,7.07,299.15,2.1,100
20,Mattru,SL,1578170134,60,7.62,-11.83,295.3,1.39,10
21,Cabo San Lucas,MX,1578169506,56,22.89,-109.91,299.26,4.6,5
22,Sann,PK,1578170134,76,26.04,68.14,286.15,3.42,0
23,Dukat,AL,1578170134,69,40.25,19.57,285.37,6.91,100
24,Caltanissetta,IT,1578170134,86,37.49,14.06,285.93,1.69,52
25,Atuona,PF,1578169606,68,-9.8,-139.03,300.68,4.13,5
26,Barrow,AR,1578169616,55,-38.31,-60.23,298.3,8.07,75
27,Souillac,FR,1578169557,86,45.6,-0.6,278.71,2.6,0
28,Veraval,FR,1578170135,93,49.65,0.71,280.15,2.1,90
29,Perth,AU,1578169692,48,-31.95,115.86,292.15,4.1,0
30,Ushuaia,AR,1578170114,38,-54.81,-68.31,288.15,2.6,40
31,Nanortalik,GL,1578169559,89,60.14,-45.24,272.23,6.91,100
32,Hermanus,ZA,1578169604,86,-34.42,19.24,291.48,0.45,5
33,Ouadda,CF,1578170135,31,8.07,22.4,292.88,2.01,3
34,General Pico,AR,1578169652,25,-35.66,-63.75,307.93,5.0,84
35,Port Lincoln,AU,1578170135,78,-34.72,135.86,288.14,7.69,100
36,Port Elizabeth,US,1578169848,87,39.31,-74.98,288.15,2.1,90
37,Palmer,AU,1578169551,87,-34.85,139.16,286.48,2.6,90
38,Lebu,ET,1578169610,55,8.96,38.73,289.15,4.1,20
39,Mahebourg,MU,1578169611,94,-20.41,57.7,299.26,1.0,75
40,Jamestown,AU,1578169848,52,-33.21,138.6,286.19,6.91,99
41,Ribeira Grande,PT,1578169606,88,38.52,-28.7,291.15,5.1,40
42,Kihei,US,1578170136,69,20.76,-156.45,300.15,7.2,20
43,Aiken,US,1578169986,59,33.56,-81.72,292.59,6.7,40
44,Zaraza,VE,1578170136,45,9.35,-65.33,303.53,2.64,0
45,Swift Current,CA,1578169868,64,50.29,-107.8,277.15,10.3,75
46,Camacha,PT,1578169963,77,33.08,-16.33,291.15,2.1,75
47,Russell,US,1578170137,49,38.9,-98.86,285.37,9.3,1
48,Namatanai,PG,1578170137,90,-3.66,152.44,298.37,1.35,100
49,Konevo,BG,1578169935,61,41.67,25.61,277.59,0.24,100
50,San Pedro,AR,1578170137,22,-33.68,-59.66,302.04,1.79,0
51,Mitsamiouli,KM,1578169606,79,-11.38,43.28,300.82,2.64,100
52,Saint-Augustin,CA,1578169551,96,45.63,-73.98,273.71,1.5,90
53,San Cristobal,HN,1578169959,50,14.68,-86.92,300.14,4.19,67
54,Mar del Plata,AR,1578169312,42,-46.43,-67.52,291.01,6.18,17
55,Feijo,EC,1578170138,58,-3.63,-79.92,305.15,4.6,75
56,Provideniya,RU,1578169611,78,64.42,-173.23,248.25,4.75,60
57,Mosquera,CO,1578170138,52,4.71,-74.23,293.15,7.2,20
58,Hofn,IS,1578169651,74,64.25,-15.21,280.41,16.65,67
59,Tommot,RU,1578170138,97,58.97,126.27,258.84,0.72,100
60,Ulaangom,MN,1578170138,90,49.98,92.07,249.54,0.94,99
61,Honningsvag,NO,1578170138,74,70.98,25.97,270.94,13.36,100
62,Zheleznodorozhnyy,RU,1578170138,79,55.75,38.0,274.26,4.0,75
63,Padang,ID,1578169609,92,-0.92,100.36,293.53,2.47,100
64,Saint-Joseph,FR,1578169877,93,43.56,6.97,283.71,2.1,0
65,Rikitea,PF,1578169602,77,-23.12,-134.97,298.26,7.42,67
66,Tasiilaq,GL,1578169610,92,65.61,-37.64,270.15,3.1,100
67,Kungurtug,RU,1578170139,89,50.6,97.53,252.33,1.12,20
68,Nikolskoye,RU,1578169535,80,59.7,30.79,274.26,7.0,90
69,Cidreira,BR,1578169642,80,-30.17,-50.22,296.02,7.94,23
70,Pingliang,CN,1578170139,93,35.54,106.68,269.83,0.49,100
71,Tevriz,RU,1578170139,93,57.51,72.4,264.87,3.74,100
72,Guerrero Negro,MX,1578169615,23,27.97,-114.04,295.15,1.34,0
73,Rabaul,PG,1578170139,83,-4.2,152.17,300.86,7.39,100
74,Nemuro,JP,1578170140,62,43.32,145.57,268.53,6.63,21
75,Cape Town,ZA,1578169418,77,-33.93,18.42,293.15,2.6,29
76,Hobyo,SO,1578169639,81,5.35,48.53,298.55,6.46,0
77,Kruisfontein,ZA,1578170140,96,-34.0,24.73,293.25,1.57,49
78,East London,ZA,1578169566,93,-33.02,27.91,297.66,5.25,48
79,Kamenka,MD,1578169865,89,48.03,28.7,274.82,4.21,94
80,Erenhot,CN,1578169632,71,43.65,111.97,264.78,3.92,100
81,Kaili,ID,1578170140,86,-3.46,120.21,290.45,0.76,100
82,Elko,US,1578170141,60,40.83,-115.76,278.71,2.1,90
83,Verkhoyansk,RU,1578169614,90,67.55,133.39,238.63,0.97,0
84,Khatanga,RU,1578169533,85,71.98,102.47,245.31,3.93,0
85,Faanui,PF,1578169608,77,-16.48,-151.75,300.62,5.41,100
86,Ixtapa,MX,1578169956,50,20.71,-105.21,298.15,2.6,75
87,Carnarvon,ZA,1578169613,24,-30.97,22.13,295.66,6.52,0
88,Norman Wells,CA,1578169847,68,65.28,-126.83,245.15,2.6,90
89,Butaritari,KI,1578169525,78,3.07,172.79,302.38,6.76,38
90,Chuy,UY,1578169638,64,-33.69,-53.46,296.62,5.52,13
91,Boende,CD,1578170141,67,-0.28,20.88,294.94,1.01,100
92,Okhotsk,RU,1578170141,90,59.36,143.24,264.54,3.17,100
93,Hasaki,JP,1578169628,58,35.73,140.83,274.15,2.6,20
94,Zhezkazgan,KZ,1578170142,96,47.8,67.71,267.79,3.86,94
95,Manzanillo,MX,1578170031,74,19.05,-104.32,303.15,5.1,75
96,Surt,LY,1578170142,72,31.21,16.59,285.78,3.84,48
97,Mingshui,CN,1578170142,77,22.81,109.89,290.21,1.82,66
98,Punta Arenas,CL,1578170114,47,-53.16,-70.91,287.15,7.2,40
99,Muros,ES,1578169660,100,42.77,-9.06,283.71,2.6,0
100,Bodden Town,KY,1578169643,74,19.28,-81.25,303.71,2.1,20
101,Zyryanka,RU,1578170142,72,65.73,150.89,257.76,7.97,15
102,Malkapur,IN,1578170142,62,20.89,76.2,289.55,3.72,0
103,Along,IN,1578170143,97,28.17,94.8,280.94,1.52,31
104,Avera,US,1578169667,72,33.19,-82.53,290.37,6.7,40
105,Forio,IT,1578170143,87,40.73,13.86,285.15,1.0,40
106,Bluff,AU,1578169614,72,-23.58,149.07,295.5,3.79,59
107,Katobu,ID,1578169621,94,-4.94,122.53,297.42,2.01,70
108,Lavrentiya,RU,1578169638,85,65.58,-170.99,249.16,5.0,78
109,Zlitan,LY,1578170147,69,32.47,14.57,285.34,6.76,0
110,Chernoyerkovskaya,RU,1578170147,71,45.43,37.76,273.15,3.0,0
111,Iqaluit,CA,1578169633,75,63.75,-68.52,246.15,15.4,75
112,Port Alfred,ZA,1578169606,98,-33.59,26.89,294.82,0.45,100
113,Mount Isa,AU,1578169624,69,-20.73,139.49,297.15,3.42,98
114,Castro,CL,1578169614,63,-42.48,-73.76,289.15,4.1,0
115,Carballo,ES,1578170148,93,43.21,-8.69,282.59,1.5,0
116,Fort Nelson,CA,1578169611,70,58.81,-122.69,252.15,3.6,75
117,Tiksi,RU,1578169607,86,71.64,128.87,246.01,3.39,77
118,Hithadhoo,MV,1578169613,68,-0.6,73.08,301.5,1.96,99
119,Chalus,IR,1578170148,87,36.66,51.42,283.15,2.1,75
120,Namibe,AO,1578169545,89,-15.19,12.15,297.39,4.59,99
121,Samarai,PG,1578169664,81,-10.62,150.67,299.31,0.56,26
122,Victoria Point,AU,1578170149,88,-27.58,153.3,297.04,2.6,20
123,Shingu,JP,1578170107,66,33.72,135.99,280.66,6.9,0
124,Andilamena,MG,1578170149,90,-17.01,48.57,293.32,1.28,100
125,Avarua,CK,1578169613,83,-21.21,-159.78,300.15,3.1,1
126,Lorengau,PG,1578169636,72,-2.02,147.27,302.21,4.05,90
127,Ilam,IR,1578170099,85,33.64,46.42,274.15,1.0,0
128,Hobart,AU,1578169592,50,-42.88,147.33,285.93,2.6,75
129,Dongsheng,CN,1578170149,82,29.72,112.52,280.59,1.67,100
130,Naryan-Mar,RU,1578170150,85,67.67,53.09,270.79,15.42,100
131,Pochutla,MX,1578170150,79,15.74,-96.47,304.26,3.1,40
132,Nome,US,1578169530,32,30.04,-94.42,293.71,3.6,1
133,Quang Ngai,VN,1578170150,71,15.12,108.8,296.74,4.25,100
134,Conneaut,US,1578170150,100,41.95,-80.55,275.93,2.1,90
135,Puerto Ayora,EC,1578169307,58,-0.74,-90.35,303.15,3.1,20
136,Tura,RU,1578169622,94,64.27,100.22,256.1,2.95,100
137,Dikson,RU,1578169546,82,73.51,80.55,255.51,9.9,100
138,Lata,IN,1578169617,62,30.78,78.62,254.92,4.45,39
139,Tuktoyaktuk,CA,1578169527,67,69.44,-133.03,242.15,4.6,40
140,Bethel,US,1578169564,75,60.79,-161.76,250.15,2.6,1
141,Mokolo,CM,1578170151,24,10.74,13.8,292.01,3.52,0
142,Kodiak,US,1578169617,38,39.95,-94.76,279.82,4.1,1
143,Qaanaaq,GL,1578169615,61,77.48,-69.36,232.65,2.28,0
144,Bandarbeyla,SO,1578169663,80,9.49,50.81,298.37,6.62,57
145,Port Blair,IN,1578170151,74,11.67,92.75,300.4,4.25,98
146,Veracruz,EC,1578170151,51,-3.97,-79.57,301.15,5.7,40
147,Okha,RU,1578170152,94,53.59,142.95,256.34,7.84,95
148,Meulaboh,ID,1578170152,78,4.14,96.13,300.51,3.31,19
149,Rio Grande,BR,1578169899,51,-32.03,-52.1,302.15,7.7,40
150,Labuhan,ID,1578170152,89,-2.54,115.51,296.9,0.88,100
151,Teya,MX,1578170152,61,21.05,-89.07,299.15,3.6,75
152,Tromso,NO,1578170088,86,69.65,18.96,270.93,2.1,75
153,Ponta Delgada,PT,1578169655,88,37.73,-25.67,290.15,4.6,20
154,Nerchinskiy Zavod,RU,1578169656,98,51.31,119.61,252.0,1.77,100
155,Kalabo,ZM,1578169643,87,-15.0,22.67,294.49,3.53,100
156,Luderitz,NA,1578169309,87,-26.65,15.16,290.11,11.4,0
157,Yellowknife,CA,1578169602,84,62.45,-114.38,258.15,7.2,90
158,Topolovgrad,BG,1578169947,69,42.08,26.33,274.15,2.1,40
159,Tarbes,FR,1578169901,87,43.23,0.08,282.15,1.5,90
160,Northallerton,GB,1578170153,87,54.34,-1.43,280.37,4.1,75
161,Teahupoo,PF,1578170153,70,-17.83,-149.27,303.15,4.6,40
162,Catumbela,AO,1578170153,79,-12.43,13.55,298.56,1.23,100
163,Umea,SE,1578170153,54,63.83,20.26,271.15,9.3,0
164,Kaitangata,NZ,1578169608,86,-46.28,169.85,282.72,3.56,100
165,Fortuna,US,1578169584,87,40.6,-124.16,285.93,2.1,1
166,Port-Gentil,GA,1578169671,100,-0.72,8.78,299.15,2.1,40
167,Ilulissat,GL,1578169619,72,69.22,-51.1,261.15,5.1,75
168,Khuzhir,RU,1578170154,80,53.19,107.35,268.16,5.96,84
169,Chauk,MM,1578170154,77,20.89,94.82,292.89,2.23,64
170,Bredasdorp,ZA,1578169605,68,-34.53,20.04,292.15,2.6,25
171,Torbay,CA,1578169766,98,47.66,-52.73,274.82,5.7,90
172,Veshenskaya,RU,1578170154,71,49.63,41.73,273.65,5.83,100
173,Castrillon,ES,1578170165,87,43.4,-6.79,282.15,1.5,75
174,Abu Dhabi,AE,1578170144,38,24.47,54.37,297.15,3.6,12
175,Inhambane,MZ,1578169904,78,-23.87,35.38,300.15,5.1,20
176,Nador,MA,1578170166,71,35.17,-2.93,287.15,2.6,75
177,Chokurdakh,RU,1578169880,98,70.62,147.9,247.2,0.36,73
178,Goderich,CA,1578169912,74,43.74,-81.71,274.26,1.79,94
179,Victoria,BN,1578169816,83,5.28,115.24,300.93,2.1,75
180,San Patricio,PY,1578169941,31,-26.98,-56.83,305.84,1.49,0
181,Madarounfa,NE,1578170167,26,13.3,7.16,289.74,5.28,0
182,Airai,TL,1578169887,80,-8.93,125.41,293.71,2.47,94
183,Kupang,ID,1578170167,79,-10.16,123.6,301.92,12.11,98
184,Angoche,MZ,1578170167,96,-16.23,39.91,296.74,2.22,100
185,Saint-Philippe,CA,1578169942,92,45.36,-73.48,273.71,5.7,90
186,Kahului,US,1578170167,83,20.89,-156.47,297.15,5.7,75
187,Tecoanapa,MX,1578169925,66,16.99,-99.26,303.15,2.1,40
188,Kalmunai,LK,1578170168,75,7.42,81.82,300.74,3.77,6
189,Crucea,RO,1578170168,74,47.35,25.61,275.37,0.5,75
190,Joshimath,IN,1578170168,79,30.57,79.57,266.98,2.33,92
191,Varhaug,NO,1578170168,61,58.61,5.65,277.04,3.6,90
192,Narsaq,GL,1578169611,86,60.91,-46.05,270.15,1.51,75
193,Sharan,AF,1578170168,85,33.15,68.78,270.88,3.51,100
194,Ostrovnoy,RU,1578169641,86,68.05,39.51,268.88,11.5,100
195,Dancheng,CN,1578170168,92,33.63,115.18,279.38,4.93,100
196,Takoradi,GH,1578169638,60,4.89,-1.75,299.91,4.56,0
197,Ashtian,IR,1578170169,90,34.52,50.0,271.51,5.01,77
198,Yulara,AU,1578169627,100,-25.24,130.99,290.15,3.6,75
199,Berlevag,NO,1578169342,73,70.86,29.09,269.59,14.44,100
200,Rumoi,JP,1578170169,60,43.93,141.67,271.16,7.29,100
201,Xining,CN,1578169609,89,36.62,101.77,265.42,1.05,99
202,Saskylakh,RU,1578169621,95,71.97,114.09,243.48,2.7,62
203,Zatoka,PL,1578170169,93,50.04,20.52,275.37,8.7,75
204,Saint George,GR,1578169310,64,39.45,22.34,279.82,2.6,100
205,Mana,NG,1578170169,23,13.03,5.27,291.58,5.32,0
206,Phan Thiet,VN,1578169510,88,10.93,108.1,291.7,1.76,100
207,Cayenne,GF,1578169620,74,4.94,-52.33,301.15,4.1,75
208,Saldanha,PT,1578169608,86,41.42,-6.55,276.49,2.06,0
209,Alekseyevsk,RU,1578170170,96,57.84,108.35,261.81,2.57,62
210,Butterworth,MY,1578170170,78,5.4,100.37,300.15,3.1,20
211,Balkanabat,TM,1578169617,63,39.51,54.36,275.32,7.45,19
212,Cairns,AU,1578169938,88,-16.92,145.77,298.15,2.1,40
213,Ridgecrest,US,1578170170,50,35.62,-117.67,287.59,1.38,1
214,Corner Brook,CA,1578170170,86,48.95,-57.95,273.15,3.1,75
215,Teteven,BG,1578170170,75,42.92,24.26,280.15,7.2,75
216,Cockburn Town,TC,1578169625,69,21.46,-71.14,301.15,7.2,40
217,Kuala Terengganu,MY,1578170171,88,5.33,103.14,299.15,2.1,40
218,Zhanaozen,KZ,1578170171,58,43.35,52.85,270.46,4.56,29
219,Emerald,AU,1578170171,73,-23.53,148.16,295.15,1.5,13
220,Alofi,NU,1578169611,74,-19.06,-169.92,301.15,4.1,40
221,Eureka,US,1578169659,76,40.8,-124.16,285.93,2.6,1
222,Isangel,VU,1578169610,78,-19.55,169.27,298.09,6.47,5
223,Hualmay,PE,1578169667,61,-11.1,-77.61,298.15,4.1,100
224,Merauke,ID,1578170171,86,-8.49,140.4,298.23,1.75,100
225,Sola,TZ,1578169625,81,-3.17,33.8,291.94,2.49,1
226,Chake Chake,TZ,1578170172,78,-5.25,39.77,301.19,4.79,73
227,Havelock,US,1578169644,82,34.88,-76.9,299.15,7.2,90
228,Bell Ville,AR,1578170172,48,-32.63,-62.69,304.82,1.79,0
229,Arraial do Cabo,BR,1578169613,94,-22.97,-42.02,298.15,2.1,75
230,Henties Bay,NA,1578170172,90,-22.12,14.28,289.82,1.34,100
231,Roald,NO,1578170172,64,62.58,6.12,277.15,4.6,75
232,Ambon,FR,1578170172,93,47.55,-2.56,278.71,1.5,13
233,Hitoyoshi,JP,1578170172,77,32.2,130.77,272.99,1.96,0
234,Pevek,RU,1578169605,64,69.7,170.27,252.21,1.19,0
235,Ponta do Sol,BR,1578169622,89,-20.63,-46.0,295.55,0.9,100
236,Tuatapere,NZ,1578169603,87,-46.13,167.69,284.26,3.13,100
237,Tosya,TR,1578170173,86,41.02,34.04,269.14,0.77,20
238,Rayagada,IN,1578170173,97,19.17,83.42,292.01,0.6,79
239,Saint-Denis,FR,1578170173,75,48.94,2.36,281.15,2.1,90
240,Tarakan,ID,1578170174,82,3.3,117.63,298.92,3.37,100
241,Tilichiki,RU,1578170174,69,60.47,166.1,254.85,2.54,98
242,Hanko,FI,1578170174,62,59.83,22.95,274.82,4.47,0
243,Providencia,CO,1578170174,69,1.24,-77.6,296.15,4.1,40
244,Biloela,AU,1578170174,72,-24.4,150.51,293.92,2.34,0
245,San Juan,AR,1578169978,16,-31.54,-68.53,310.64,3.81,0
246,Klyuchi,RU,1578170174,86,52.25,79.17,266.65,4.41,71
247,Harnosand,SE,1578170174,58,62.63,17.94,273.71,7.7,0
248,Brae,GB,1578169634,93,60.4,-1.35,279.15,11.3,100
249,Severo-Kurilsk,RU,1578169639,73,50.68,156.12,263.34,1.39,100
250,Wasilla,US,1578169608,75,61.58,-149.44,253.71,0.28,90
251,Mukhen,RU,1578170175,92,48.19,136.14,252.03,2.53,100
252,Zuenoula,CI,1578170175,20,7.43,-6.04,297.44,0.84,2
253,Aklavik,CA,1578169610,74,68.22,-135.01,243.15,4.1,40
254,Banjarmasin,ID,1578170175,85,-3.32,114.59,300.35,3.89,100
255,Bougouni,ML,1578170175,12,11.42,-7.49,292.54,2.19,0
256,Saint-Michel-des-Saints,CA,1578170175,94,46.68,-73.92,267.35,1.21,100
257,Talnakh,RU,1578169552,84,69.49,88.39,254.15,9.0,100
258,Aksu,KZ,1578169605,86,52.04,76.93,270.15,5.0,90
259,Port Hawkesbury,CA,1578170099,86,45.62,-61.36,275.37,1.5,75
260,Nhulunbuy,AU,1578169669,78,-12.18,136.78,300.15,2.1,100
261,Japura,ID,1578169656,99,-0.42,102.29,295.58,0.81,94
262,Luganville,VU,1578170176,69,-15.51,167.18,301.15,3.1,40
263,Adrar,DZ,1578169623,27,27.87,-0.29,284.15,4.1,85
264,Daru,PG,1578169654,80,-9.07,143.21,297.97,1.03,100
265,Bonavista,CA,1578170176,85,48.65,-53.11,271.5,4.2,68
266,Cartagena del Chaira,CO,1578170176,46,1.33,-74.84,305.0,1.57,20
267,Riyadh,SA,1578169952,52,24.63,46.72,292.15,1.5,75
268,Yurga,RU,1578170177,91,55.71,84.93,265.52,7.67,93
269,Bonito,BR,1578170177,92,-1.36,-47.3,297.7,1.99,100
270,Erdenet,MN,1578170177,83,49.03,104.04,258.74,2.52,100
271,Harper,US,1578169658,18,30.3,-99.24,295.15,2.1,1
272,Bahia Honda,CU,1578170177,70,22.9,-83.16,301.6,3.7,43
273,Sennoy,RU,1578170177,89,52.16,46.96,273.31,7.31,100
274,Kasongo-Lunda,CD,1578169626,98,-6.48,16.82,292.65,0.54,100
275,Shenjiamen,CN,1578169624,67,29.96,122.3,286.94,6.6,93
276,Katsuura,JP,1578169610,65,33.93,134.5,281.15,7.2,75
277,Tatarsk,RU,1578170177,86,55.22,75.96,269.67,7.56,100
278,Krasnyy Profintern,RU,1578170178,96,57.74,40.44,273.15,6.0,90
279,Beloha,MG,1578169630,85,-25.17,45.06,296.05,5.89,0
280,Marinette,US,1578170178,63,45.1,-87.63,272.15,3.6,90
281,Novyy Oskol,RU,1578170178,96,50.76,37.86,271.62,4.11,100
282,Camacupa,AO,1578170178,98,-12.02,17.48,290.75,2.3,100
283,Hamilton,CA,1578170140,80,43.26,-79.87,276.48,2.6,90
284,Otjimbingwe,NA,1578170178,28,-22.35,16.13,296.44,3.4,98
285,Sao Joao da Barra,BR,1578169326,78,-21.64,-41.05,300.15,6.2,75
286,Neveklov,CZ,1578170179,86,49.75,14.53,277.59,6.2,90
287,Srednekolymsk,RU,1578170179,55,67.46,153.71,255.22,1.01,88
288,Batticaloa,LK,1578169642,95,7.71,81.69,295.72,0.96,22
289,Kavieng,PG,1578169623,77,-2.57,150.8,301.91,5.42,100
290,Mankera,NG,1578170179,22,13.01,5.07,291.6,5.26,0
291,Porto Nacional,BR,1578169639,94,-10.7,-48.41,299.15,1.0,90
292,Dharmavaram,IN,1578170179,79,14.41,77.72,296.47,1.85,14
293,Moate,IE,1578170179,89,53.4,-7.72,280.93,4.02,100
294,Galle,GN,1578170179,28,10.08,-12.83,294.45,1.08,3
295,Nayoro,JP,1578170179,96,44.36,142.46,260.58,1.5,100
296,Menongue,AO,1578170180,95,-14.66,17.68,291.01,2.59,100
297,Pangnirtung,CA,1578170180,77,66.15,-65.72,256.15,5.7,75
298,Faya,SA,1578170180,87,18.39,42.45,289.15,4.1,20
299,Banavar,IN,1578170180,74,13.41,76.17,292.45,1.23,7
300,Karratha,AU,1578170180,73,-20.74,116.85,301.8,8.04,100
301,Thompson,CA,1578169609,77,55.74,-97.86,256.15,3.6,90
302,Belyy Yar,RU,1578169932,85,53.6,91.39,262.15,1.0,100
303,Gravdal,NO,1578170180,76,59.79,5.78,275.93,4.1,75
304,Upernavik,GL,1578169605,97,72.79,-56.15,235.73,5.46,64
305,Xingtai,CN,1578170181,42,37.07,114.49,275.39,4.12,100
306,Vao,EE,1578169949,79,59.1,26.19,272.69,4.57,1
307,Kavaratti,IN,1578169631,69,10.57,72.64,300.02,3.97,66
308,Zoetermeer,NL,1578170181,87,52.06,4.49,281.48,3.1,90
309,Nosy Varika,MG,1578170181,92,-20.58,48.53,297.02,2.27,36
310,Vysokogornyy,RU,1578170181,100,50.1,139.13,244.8,1.53,100
311,Barranca,PE,1578169631,90,-10.75,-77.76,295.03,4.41,100
312,Buala,SB,1578170182,79,-8.15,159.59,301.24,3.26,87
313,Binghamton,US,1578170182,91,42.1,-75.91,277.04,6.7,90
314,Tomatlan,MX,1578170182,21,19.93,-105.25,303.53,2.24,49
315,Fare,PF,1578169621,76,-16.7,-151.02,300.71,5.2,100
316,Santa Maria,BR,1578169622,88,-16.02,-48.01,295.15,1.5,90
317,Jati,PK,1578170182,89,24.35,68.27,289.9,1.87,0
318,Tingi,TZ,1578170182,88,-11.3,35.03,294.5,2.19,100
319,Whitehaven,US,1578170182,56,35.03,-90.03,280.93,5.1,40
320,Esperance,AU,1578169613,76,-33.86,121.89,285.15,5.7,0
321,San Buenaventura,MX,1578170182,18,27.06,-101.55,293.16,2.54,0
322,Petrovskoye,RU,1578170183,92,56.26,36.47,272.15,5.0,40
323,Abu Kamal,SY,1578169655,57,34.45,40.92,284.34,3.16,68
324,Sao Desiderio,BR,1578170183,95,-12.36,-44.97,292.86,3.39,100
325,Geraldton,CA,1578170113,78,49.72,-86.95,264.15,3.1,90
326,Bambous Virieux,MU,1578170114,94,-20.34,57.76,298.71,1.0,75
327,Acaponeta,MX,1578170183,25,22.49,-105.36,302.78,0.73,0
328,Ypsonas,CY,1578170183,81,34.69,32.96,288.15,2.6,75
329,Yeppoon,AU,1578170183,73,-23.13,150.74,295.15,2.6,100
330,Entre Rios,BR,1578170184,78,-11.94,-38.08,298.74,3.02,71
331,Key West,US,1578170184,85,47.93,-96.78,267.59,7.2,1
332,Weiser,US,1578170184,43,44.25,-116.97,283.15,7.2,1
333,Imbituba,BR,1578170184,83,-28.24,-48.67,298.15,5.7,75
334,Seddon,AU,1578169642,71,-37.81,144.89,288.71,5.1,75
335,Villanueva de la Serena,ES,1578170185,80,38.97,-5.8,281.48,0.89,0
336,Havre-Saint-Pierre,CA,1578169628,85,50.23,-63.6,266.15,1.5,1
337,Iquique,CL,1578170185,64,-20.22,-70.14,297.15,6.2,76
338,Olinda,AU,1578170185,71,-37.84,145.39,287.59,5.1,75
339,Soma,JP,1578170186,87,37.8,140.92,272.04,6.91,12
340,Rawson,AR,1578169611,76,-43.3,-65.11,288.26,7.17,0
341,Zaragoza,SV,1578170186,48,13.59,-89.29,305.15,5.1,40
342,The Pas,CA,1578170186,85,53.82,-101.24,264.15,7.2,100
343,Pisco,PE,1578169635,30,-13.71,-76.2,297.04,9.8,89
344,Noumea,NC,1578169471,69,-22.28,166.46,298.15,1.0,7
345,Pitimbu,BR,1578169950,69,-7.47,-34.81,301.15,5.1,20
346,Kenai,US,1578170187,75,60.55,-151.26,254.82,1.5,1
347,North Bend,US,1578170187,81,43.41,-124.22,284.26,3.6,1
348,Lazaro Cardenas,MX,1578170187,35,28.39,-105.62,290.93,2.6,5
349,Kardla,EE,1578170187,86,58.44,26.57,275.37,5.7,65
350,Horodok,UA,1578170106,80,49.78,23.65,274.26,4.0,90
351,Simojovel,MX,1578170188,99,17.14,-92.71,285.85,2.04,100
352,Mirador,BR,1578170188,96,-6.37,-44.36,295.44,0.8,100
353,Sault Sainte Marie,CA,1578170189,86,46.49,-84.36,271.15,3.6,90
354,Acapulco,MX,1578170057,66,16.86,-99.88,303.15,2.1,40
355,Beyneu,KZ,1578169632,67,45.32,55.19,271.17,2.75,12
356,Gisenyi,CD,1578169930,93,-1.69,29.26,283.93,0.53,14
357,Rio Gallegos,AR,1578169569,38,-51.62,-69.22,288.15,12.3,40
358,Klaksvik,FO,1578169555,100,62.23,-6.59,280.15,6.2,100
359,Waitara,NZ,1578170189,63,-39.0,174.24,288.15,7.15,100
360,Grand-Santi,GF,1578169626,75,4.27,-54.38,299.91,2.14,95
361,Antalaha,MG,1578170189,84,-14.9,50.28,299.26,1.34,100
362,Lompoc,US,1578169620,72,34.64,-120.46,290.37,3.6,1
363,Bilma,NE,1578170190,34,18.69,12.92,282.88,1.45,0
364,Prudentopolis,BR,1578170190,62,-25.21,-50.98,297.79,2.96,25
365,Douentza,ML,1578170190,15,15.01,-2.95,289.22,3.16,6
366,Boddam,GB,1578169658,93,57.47,-1.78,280.15,4.1,20
367,Matara,BI,1578169921,90,-3.48,29.48,287.67,1.36,55
368,Erzin,TR,1578169662,100,36.95,36.2,282.59,0.5,75
369,High Level,CA,1578169618,91,58.52,-117.13,256.15,4.6,20
370,Port Hardy,CA,1578169605,93,50.7,-127.42,277.15,1.5,75
371,Comodoro Rivadavia,AR,1578169627,32,-45.87,-67.48,294.15,8.2,40
372,Katastarion,GR,1578170191,87,37.83,20.77,280.15,2.1,20
373,New York,US,1578169952,93,40.73,-73.99,284.26,4.53,75
374,Luwingu,ZM,1578170191,92,-10.26,29.92,291.55,0.52,100
375,Ust-Omchug,RU,1578170191,97,61.13,149.63,254.87,1.35,100
376,Leopold,US,1578170191,100,38.1,-86.58,277.15,5.1,90
377,Mitchell,US,1578170191,74,43.71,-98.03,272.15,4.6,1
378,Lagoa,PT,1578169563,87,37.14,-8.45,285.93,2.1,0
379,Novyy Urgal,RU,1578170191,99,51.07,132.56,241.08,0.69,97
380,Bagaha,IN,1578169913,86,27.1,84.09,285.87,1.96,0
381,Salisbury,GB,1578170192,87,51.07,-1.8,281.15,2.1,90
382,Sembakung,ID,1578170192,90,3.82,117.25,296.83,1.38,100
383,Zhuhai,CN,1578170192,66,40.71,112.04,263.15,3.0,67
384,Itarema,BR,1578169639,74,-2.92,-39.92,300.16,3.22,62
385,Kipushi,CD,1578170192,98,-11.76,27.24,290.66,1.74,100
386,Montepuez,MZ,1578170192,92,-13.13,39.0,295.95,2.37,100
387,Grand Gaube,MU,1578169654,94,-20.01,57.66,299.26,1.0,75
388,Penzance,GB,1578169610,87,50.12,-5.53,284.26,2.1,75
389,Merritt Island,US,1578170193,94,28.54,-80.67,295.37,5.1,40
390,Skibbereen,IE,1578170193,93,51.55,-9.27,281.15,5.7,75
391,Deputatskiy,RU,1578169653,86,69.3,139.9,250.53,0.94,100
392,Sao Filipe,CV,1578169626,77,14.9,-24.5,294.59,4.84,39
393,Kaeo,NZ,1578169657,89,-35.1,173.78,293.71,0.45,100
394,Parrita,CR,1578170193,47,9.52,-84.33,302.15,6.2,20
395,Praya,ID,1578170193,90,-8.71,116.27,293.77,2.91,100
396,Trofors,NO,1578170193,96,65.54,13.39,273.15,4.1,75
397,Vestmannaeyjar,IS,1578169553,76,63.44,-20.27,279.73,12.48,91
398,Grindavik,IS,1578169631,86,63.84,-22.43,277.15,10.3,75
399,Bhag,PK,1578170194,40,29.04,67.82,287.96,0.85,0
400,Nikolsk,RU,1578170194,94,59.53,45.45,271.07,3.11,100
401,Margate,AU,1578169659,50,-43.03,147.26,285.93,2.6,75
402,Umm Kaddadah,SD,1578170194,20,13.6,26.69,289.19,6.07,0
403,Gold Coast,AU,1578170022,73,-28.0,153.41,297.04,4.6,3
404,Tsaratanana,MG,1578170194,97,-16.8,47.65,293.96,1.04,100
405,Zhigansk,RU,1578169629,94,66.77,123.37,244.21,4.81,100
406,Gornopravdinsk,RU,1578170195,93,60.06,69.92,269.02,4.91,100
407,Komsomolskiy,RU,1578169658,90,67.55,63.78,269.5,8.02,78
408,Lima,PE,1578169900,78,-12.06,-77.04,297.15,5.1,100
409,Aswan,EG,1578170195,56,24.09,32.9,282.0,4.79,0
410,Totness,US,1578170195,55,33.74,-80.8,293.15,6.7,75
411,Pangody,RU,1578170195,94,65.85,74.49,266.4,8.04,100
412,Dubbo,AU,1578169645,28,-32.25,148.6,302.15,5.1,0
413,Enshi,CN,1578170195,97,30.29,109.48,277.61,0.92,100
414,Tiznit,MA,1578170195,71,29.7,-9.73,284.78,0.66,0
415,Hovd,NO,1578169663,82,63.83,10.7,275.93,13.9,75
416,Erice,IT,1578170196,76,38.04,12.59,287.59,2.1,75
417,Montecristo,CO,1578170196,61,8.3,-74.47,304.13,1.55,86
418,Vila Franca do Campo,PT,1578170196,88,37.72,-25.43,290.15,4.1,20
419,Birao,CF,1578169665,22,10.3,22.78,294.21,5.02,0
420,Chulman,RU,1578170196,97,56.84,124.9,257.32,1.48,100
421,Asyut,EG,1578170196,46,27.18,31.19,283.15,4.6,0
422,Poum,MK,1578169644,74,41.28,20.71,274.15,1.0,100
423,Valparaiso,US,1578169908,75,41.47,-87.06,274.26,5.1,90
424,Egvekinot,RU,1578169644,59,66.32,-179.17,248.27,5.22,0
425,Baykit,RU,1578169659,91,61.68,96.39,261.96,3.23,100
426,Verkhnevilyuysk,RU,1578170197,98,63.45,120.31,243.82,1.2,94
427,Ylivieska,FI,1578170197,89,64.07,24.53,272.59,3.13,100
428,Sitka,US,1578169630,42,37.17,-99.65,285.93,2.24,0
429,Aykhal,RU,1578169565,74,65.95,111.51,242.15,2.0,15
430,Nuuk,GL,1578169472,85,64.17,-51.74,268.15,1.5,75
431,Suozhen,CN,1578170197,69,36.95,118.1,275.93,3.57,100
432,Dunedin,NZ,1578169632,89,-45.87,170.5,283.71,5.81,100
433,Yar-Sale,RU,1578170197,95,66.83,70.83,271.34,7.05,100
434,Estepa,ES,1578170197,87,37.29,-4.88,284.15,1.5,0
435,Xingyi,CN,1578170198,98,24.19,102.82,282.38,1.93,1
436,Salur,IN,1578170198,96,18.52,83.21,289.82,0.64,41
437,Vardo,US,1578169607,62,39.62,-77.74,286.48,7.7,90
438,Skjervoy,NO,1578170198,66,70.03,20.97,272.73,13.46,100
439,Karksi-Nuia,EE,1578170198,87,58.1,25.55,275.37,3.58,68
440,Malatya,TR,1578170198,93,38.35,38.32,274.15,2.1,90
441,Katangli,RU,1578170198,86,51.71,143.23,256.33,5.43,100
442,Sungairaya,ID,1578170198,90,0.7,108.9,297.16,3.21,0
443,Bindura,ZW,1578170198,90,-17.3,31.33,292.61,1.47,71
444,Quatre Cocos,MU,1578170198,94,-20.21,57.76,298.71,1.0,75
445,Orlik,PL,1578170199,86,53.95,17.74,274.82,7.2,20
446,Hare Bay,CA,1578170199,92,48.86,-53.99,270.15,3.6,75
447,Villarrica,CL,1578170199,43,-39.28,-72.23,298.15,6.7,0
448,Tezu,IN,1578169661,97,27.93,96.16,284.53,0.68,68
449,Seaca,RO,1578170199,76,44.15,24.76,276.06,5.19,100
450,Chicama,PE,1578170199,78,-7.84,-79.15,296.15,4.1,20
451,Asosa,ET,1578170199,38,10.07,34.53,293.6,1.45,13
452,Sibolga,ID,1578170199,96,1.74,98.78,295.07,1.49,86
453,Novita,CO,1578170200,90,4.96,-76.61,298.18,1.25,28
454,The Valley,AI,1578170200,61,18.22,-63.06,301.15,4.6,20
455,Zhicheng,CN,1578169602,95,35.04,112.59,275.45,5.01,100
456,Karacabey,TR,1578170201,100,40.21,28.36,278.15,2.1,0
457,Panguna,PG,1578170202,85,-6.32,155.48,297.41,0.82,69
458,Mezen,RU,1578170202,89,65.85,44.24,270.19,6.3,99
459,Lively,US,1578170202,37,33.6,-99.18,287.04,2.6,1
460,Hami,CN,1578169651,56,42.84,93.51,264.31,0.87,0
461,Qaqortoq,GL,1578169657,86,60.72,-46.03,270.15,2.04,75
462,Viedma,AR,1578170202,59,-40.81,-62.99,291.93,7.93,2
463,Natal,BR,1578170202,66,-5.81,-35.21,303.15,7.2,20
464,Sorland,NO,1578170203,60,67.67,12.69,273.83,8.76,95
465,Mongu,ZM,1578170203,94,-15.27,23.14,293.23,2.87,100
466,Pimentel,BR,1578170203,97,-3.7,-45.5,296.77,1.43,100
467,Campbell River,CA,1578170193,75,50.02,-125.24,279.15,2.6,75
468,Manzhouli,CN,1578170203,74,49.6,117.43,259.01,1.36,48
469,Husavik,CA,1578170203,93,50.56,-96.99,269.82,2.24,100
470,Usinsk,RU,1578170203,82,66.0,57.56,268.07,9.27,39
471,Laguna,BZ,1578169619,66,16.17,-88.94,303.15,4.1,40
472,Clyde River,CA,1578169650,67,70.47,-68.59,241.15,3.1,75
473,Banda Aceh,ID,1578169564,87,5.56,95.32,295.28,2.3,0
474,Porto Novo,BR,1578169650,88,-23.68,-45.44,295.15,4.1,75
475,Carlos Chagas,BR,1578170204,88,-17.7,-40.76,297.94,1.7,100
476,Vanavara,RU,1578170204,94,60.35,102.28,257.49,2.46,100
477,Taltal,CL,1578169661,71,-25.41,-70.49,291.2,2.65,0
478,Ankara,TR,1578170204,80,39.92,32.85,273.71,1.0,75
479,Shebunino,RU,1578170205,93,57.66,40.04,273.15,6.0,90
480,Aden,YE,1578170205,73,12.79,45.03,297.5,3.52,75
481,Careiro da Varzea,BR,1578170205,88,-3.2,-59.81,307.15,1.5,75
482,Donegal,IE,1578170205,93,54.65,-8.11,282.15,8.7,90
483,Shimoda,JP,1578170205,89,34.7,138.93,275.93,5.84,75
484,Wamba,CD,1578170205,91,2.14,27.99,294.21,1.48,88
485,Mahayag,PH,1578170205,95,8.13,123.44,293.88,1.3,2
486,Los Llanos de Aridane,ES,1578170205,68,28.66,-17.92,291.15,4.1,75
487,Inuvik,CA,1578170206,74,68.36,-133.71,243.15,1.5,75
488,Agropoli,IT,1578170206,1,40.35,15.0,283.15,1.42,75
489,Half Moon Bay,US,1578169671,87,37.46,-122.43,289.82,3.1,75
490,Paluan,PH,1578170206,81,13.42,120.46,297.18,8.96,15
491,Ancud,CL,1578169630,63,-41.87,-73.83,289.15,4.1,0
492,Saint Stephen,US,1578170206,85,45.7,-94.27,272.15,2.6,47
493,Pio XII,BR,1578170206,96,-3.89,-45.17,296.14,1.15,100
494,Ayan,IR,1578170206,83,38.23,44.7,263.76,3.62,95
495,Yerbogachen,RU,1578169638,94,61.28,108.01,253.77,2.82,82
496,Hambantota,LK,1578170207,84,6.12,81.12,299.28,7.38,7
497,Robertsport,LR,1578170207,57,6.75,-11.37,301.06,5.39,0
498,Broome,GB,1578169964,87,52.47,1.45,280.37,3.1,40
499,Salalah,OM,1578169943,73,17.01,54.1,298.15,4.1,40
500,Iskateley,RU,1578170207,85,67.68,53.15,270.79,15.42,100
501,Sesto Fiorentino,IT,1578170207,100,43.83,11.2,282.04,1.5,90
502,Cherskiy,RU,1578170207,58,68.75,161.3,253.78,2.97,31
503,Dawei,MM,1578170207,65,14.07,98.19,298.83,4.06,28
504,Vyshestebliyevskaya,RU,1578170207,69,45.2,37.0,273.15,3.0,93
505,Voh,NC,1578170208,72,-20.95,164.69,297.61,3.17,0
506,Shahreza,IR,1578170208,78,32.01,51.87,277.73,3.6,100
507,Caloundra,AU,1578170208,88,-26.8,153.14,295.37,2.6,20
508,Bandar-e Lengeh,IR,1578170208,66,26.56,54.88,296.03,2.35,0
509,Moree,AU,1578170208,42,-29.46,149.84,300.15,6.7,0
510,Turayf,SA,1578170134,87,31.68,38.65,280.15,4.1,40
511,Palembang,ID,1578170208,97,-2.99,104.76,296.79,1.49,100
512,Kailua,US,1578170027,94,21.39,-157.74,297.15,7.2,90
513,Hay River,CA,1578170209,85,60.82,-115.79,261.15,3.1,90
514,Yakeshi,CN,1578170209,100,49.28,120.73,252.75,1.5,100
515,Jacareacanga,BR,1578170126,68,-6.22,-57.76,301.22,1.09,64
516,Southbridge,US,1578170209,93,42.08,-72.03,280.93,2.1,90
517,Barra do Corda,BR,1578170162,97,-5.5,-45.25,295.91,0.64,100
518,Arica,CL,1578170209,61,-18.48,-70.32,298.15,6.2,41
519,Birjand,IR,1578170210,87,32.86,59.22,279.15,6.2,90
520,Rome,IT,1578169430,87,41.89,12.48,283.71,1.0,40
521,Pacific Grove,US,1578169506,67,36.62,-121.92,290.37,2.6,1
522,Bintulu,MY,1578169657,94,3.17,113.03,298.15,0.56,75
523,Tautira,PF,1578169663,70,-17.73,-149.15,303.15,4.6,40
524,Cukai,MY,1578170210,88,4.25,103.42,298.15,1.5,100
525,Codrington,AU,1578170210,93,-28.95,153.24,296.15,2.6,0
526,Coihaique,CL,1578169617,42,-45.58,-72.07,290.15,4.1,75
527,Tchollire,CM,1578170211,24,8.4,14.17,293.18,0.57,0
528,Dudinka,RU,1578169959,84,69.41,86.18,254.15,9.0,100
529,Vila Velha,BR,1578169640,69,-3.71,-38.6,303.15,4.6,20
530,Praia da Vitoria,PT,1578169657,88,38.73,-27.07,291.15,9.35,40
531,Tafresh,IR,1578170211,90,34.69,50.01,271.51,5.01,77
532,Celestun,MX,1578170135,75,20.87,-90.4,296.28,10.28,17
533,Santa Isabel do Rio Negro,BR,1578170211,47,-0.41,-65.02,306.48,0.67,99
534,Omidiyeh,IR,1578170211,77,30.76,49.7,288.15,5.27,100
535,Ekuvukeni,ZA,1578170211,68,-28.47,30.16,293.87,0.32,91
536,Lufilufi,WS,1578169627,94,-13.87,-171.6,298.71,1.34,85
537,Flinders,AU,1578170212,68,-34.58,150.85,294.82,4.1,0
538,Catuday,PH,1578170212,77,16.29,119.81,298.76,6.03,73
539,Selkirk,CA,1578170212,79,50.15,-96.88,269.82,7.2,90
540,Ekibastuz,KZ,1578170212,81,51.72,75.32,267.67,8.02,95
541,Homer,US,1578170212,84,59.64,-151.54,264.82,2.46,1
542,Gat,SN,1578170212,43,14.69,-16.54,301.15,6.2,30
543,Rosario Oeste,BR,1578170212,79,-14.84,-56.43,300.98,2.35,76
544,Dingle,PH,1578169620,94,11.0,122.67,295.13,4.48,4
545,Otavi,NA,1578170212,88,-19.64,17.34,291.76,2.77,100
546,Rameswaram,IN,1578170213,81,9.28,79.3,300.27,6.28,35
547,Puka,EE,1578170213,86,58.06,26.24,275.37,5.7,66
548,Aleksandrovskiy Zavod,RU,1578170213,83,50.92,117.94,257.99,1.66,95
549,Xinzhou,CN,1578170213,51,38.41,112.73,269.38,0.53,96
550,Guarapari,BR,1578170213,94,-20.67,-40.5,299.15,4.1,75
